business_id,name,category,city,state,address,phone,website,google_maps_link,tags,jeep_note,source,osm_id,lat,lon
anders-auto-glass-co,Anders Auto Glass,Auto Glass and Windshield,Fort Collins,CO,"7795, Southwest Frontage Road, Fort Collins, CO, 80528",+1-970-689-3763,http://www.andersautoglass.com/,"https://www.google.com/maps?q=40.477593,-104.993178","auto-glass, windshield",,OSM,way/361342983,40.4775925,-104.9931778
auto-glass-unlimited-co,Auto Glass Unlimited,Auto Glass and Windshield,Lakewood,CO,"11614, West Belleview Avenue, Lakewood, CO, 80127",+1-303-862-4433,http://www.windshieldsfast.com/,"https://www.google.com/maps?q=39.623782,-105.129951","auto-glass, windshield",,OSM,node/5638723335,39.6237818,-105.129951
auto-glass-usa-co,Auto Glass USA,Auto Glass and Windshield,Englewood,CO,"150, West Belleview Avenue, Englewood, CO, 80110",+1-303-831-1111,http://www.autoglass-usa.com,"https://www.google.com/maps?q=39.623776,-104.989243","auto-glass, windshield",,OSM,node/5905703292,39.6237755,-104.9892427
br-auto-glass-co,BR Auto Glass,Auto Glass and Windshield,Englewood,CO,"2842, South Broadway, Englewood, CO, 80113",+1-303-777-2573,http://brautoglassco.com/,"https://www.google.com/maps?q=39.665034,-104.987197","auto-glass, windshield",,OSM,way/49946816,39.6650338,-104.9871967
carefree-windshield-repair-co,Carefree Windshield Repair,Auto Glass and Windshield,,CO,"1501, South Tejon Street, CO, 80905",+1-719-339-4812,https://carefreewindshieldrepair.com/,"https://www.google.com/maps?q=38.812116,-104.824386","auto-glass, windshield",,OSM,node/13541554901,38.8121158,-104.8243864
friendly-auto-glass-and-repair-co,Friendly Auto Glass and Repair,Auto Glass and Windshield,Commerce City,CO,"7350, State Highway 2, Commerce City, CO, 80022",+1 303 287 9954,,"https://www.google.com/maps?q=39.830010,-104.911554","auto-glass, windshield",,OSM,way/263590986,39.83001,-104.9115536
latino-s-auto-glass-co,Latino's Auto Glass,Auto Glass and Windshield,Denver,CO,"280, Federal Boulevard, Denver, CO, 80219-1535",+1-303-935-6658,http://www.latinosautoglass.com/,"https://www.google.com/maps?q=39.721030,-105.024835","auto-glass, windshield",,OSM,way/386557023,39.7210295,-105.0248354
slp-auto-glass-co,SLP Auto Glass,Auto Glass and Windshield,Lakewood,CO,"5700, West Alameda Avenue, Lakewood, CO, 80226",+1-303-936-6666,https://slpautoglass.com,"https://www.google.com/maps?q=39.710695,-105.059613","auto-glass, windshield",,OSM,way/1382569656,39.710695,-105.059613
ultra-bond-co,Ultra Bond,Auto Glass and Windshield,Grand Junction,CO,"2458, I 70 Business Loop, Grand Junction, CO, 81501",+1-970-256-0200,https://www.ultrabond.com/,"https://www.google.com/maps?q=39.069501,-108.536110","auto-glass, windshield",,OSM,node/12887457648,39.0695013,-108.5361099
american-differential-and-drive-train-co,American Differential and Drive Train,"Drivetrain Specialists (Axles, Gears, Driveshafts)",Commerce City,CO,"7270, Locust Street, Commerce City, CO, 80022",+1 303 227 0121,,"https://www.google.com/maps?q=39.828638,-104.912996","drivetrain, axle, gears",,OSM,way/263590955,39.8286384,-104.9129962
blacksheep-auto-repair-co,Blacksheep Auto Repair,"Drivetrain Specialists (Axles, Gears, Driveshafts)",Grand Junction,CO,"587, 25 Road, Grand Junction, CO, 81505",+1-970-256-7625,http://www.rockstarkustomz.com,"https://www.google.com/maps?q=39.089742,-108.589981","drivetrain, axle, gears, 4x4",4x4 focused,OSM,node/5820498247,39.0897419,-108.5899813
car-tech-automotive-diagnostics-co,Car Tech Automotive & Diagnostics,Electrical and Diagnostics (Older Vehicle Friendly),Grand Junction,CO,"2846, I 70 Business Loop, Grand Junction, CO, 81501",+1 970 255 8324,https://cartechautomotiveinc.com/,"https://www.google.com/maps?q=39.071150,-108.526665","electrical, diagnostics",,OSM,way/497023282,39.0711503,-108.5266649
contreras-auto-repair-electrical-co,Contreras Auto Repair & Electrical,Electrical and Diagnostics (Older Vehicle Friendly),,CO,CO,+1-970-986-8700,,"https://www.google.com/maps?q=39.091447,-108.444863","electrical, diagnostics",,OSM,node/12094073473,39.0914466,-108.4448634
all-metals-welding-fabrication-company-co,All Metals Welding & Fabrication Company,Fabrication and Welding (4x4),Grand Junction,CO,"1707, I 70 Business Loop, Grand Junction, CO, 81501",+1 970 243 6310,https://allmetalswelding.com/,"https://www.google.com/maps?q=39.065494,-108.544860","fabrication, welding, 4x4",,OSM,way/625795576,39.0654943,-108.5448598
4-wheel-parts-co,4 Wheel Parts,Parts Shops and 4x4 Retailers,Loveland,CO,"3686, Draft Horse Drive, Loveland, CO, 80538",,http://www.4wheelparts.com/,"https://www.google.com/maps?q=40.429997,-104.988420","parts, retail",,OSM,node/4457155337,40.4299972,-104.9884199
a-a-topper-sales-truck-accessories-co,A&A Topper Sales & Truck Accessories,Parts Shops and 4x4 Retailers,,CO,"5425, South Broadway, CO",+1 303-797-3233,www.aatoppers.com,"https://www.google.com/maps?q=39.618680,-104.988450","parts, retail",,OSM,node/9120930267,39.6186796,-104.9884497
advance-auto-parts-co-2,Advance Auto Parts,Parts Shops and 4x4 Retailers,Aurora,CO,"2670, South Havana Street, Aurora, CO, 80014",+1-303-872-4370,https://stores.advanceautoparts.com/co/aurora/2670-s-havana-st,"https://www.google.com/maps?q=39.668401,-104.865537","parts, retail",,OSM,node/2753175604,39.6684009,-104.865537
advance-auto-parts-co-3,Advance Auto Parts,Parts Shops and 4x4 Retailers,Loveland,CO,"3200, Garfield Avenue, Loveland, CO, 80538",+1-970-663-3690,https://stores.advanceautoparts.com/co/loveland/3200-n-garfield-ave,"https://www.google.com/maps?q=40.425195,-105.076990","parts, retail",,OSM,node/4788712388,40.425195,-105.0769904
advance-auto-parts-co-4,Advance Auto Parts,Parts Shops and 4x4 Retailers,co,CO,"3784, East Pikes Peak Avenue, co, CO, 80909",+1 719-574-1950,https://stores.advanceautoparts.com/co/colorado-springs/3784-e-pikes-peak-ave,"https://www.google.com/maps?q=38.832496,-104.758298","parts, retail",,OSM,node/5099458303,38.8324964,-104.758298
advance-auto-parts-co-5,Advance Auto Parts,Parts Shops and 4x4 Retailers,Colorado Springs,CO,"725, Cheyenne Meadows Road, Colorado Springs, CO, 80906",+1-719-579-9633,https://stores.advanceautoparts.com/co/colorado-springs/725-cheyenne-meadows-rd,"https://www.google.com/maps?q=38.775812,-104.814172","parts, retail",,OSM,node/6035884556,38.7758119,-104.8141722
advance-auto-parts-co,Advance Auto Parts,Parts Shops and 4x4 Retailers,Lakewood,CO,"10600, West Colfax Avenue, Lakewood, CO, 80215",+1-303-238-2886,https://stores.advanceautoparts.com/co/lakewood/10600-w-colfax-ave,"https://www.google.com/maps?q=39.739650,-105.117126","parts, retail",,OSM,node/12797448022,39.7396501,-105.1171256
advance-auto-parts-co-21,Advance Auto Parts,Parts Shops and 4x4 Retailers,Parker,CO,"16901, East Lincoln Avenue, Parker, CO, 80134",+1 720-851-5745,https://stores.advanceautoparts.com/co/parker/16901-lincoln-ave,"https://www.google.com/maps?q=39.536308,-104.792774","parts, retail",,OSM,way/83511708,39.536308,-104.7927738
advance-auto-parts-co-12,Advance Auto Parts,Parts Shops and 4x4 Retailers,Fort Collins,CO,"1023, North College Avenue, Fort Collins, CO, 80524",+1-970-482-0134,https://stores.advanceautoparts.com/co/fort-collins/1023-n-college-ave,"https://www.google.com/maps?q=40.600746,-105.077116","parts, retail",,OSM,way/172542531,40.6007461,-105.0771161
advance-auto-parts-co-16,Advance Auto Parts,Parts Shops and 4x4 Retailers,Denver,CO,"6342, East Evans Avenue, Denver, CO, 80222",+1-303-758-1050,https://stores.advanceautoparts.com/co/denver/6342-e-evans-ave,"https://www.google.com/maps?q=39.678142,-104.914911","parts, retail",,OSM,way/307243777,39.678142,-104.9149111
advance-auto-parts-co-19,Advance Auto Parts,Parts Shops and 4x4 Retailers,Lafayette,CO,"680, North Highway 287, Lafayette, CO, 80026",+1 303-665-8005,https://stores.advanceautoparts.com/co/lafayette/680-hwy-287,"https://www.google.com/maps?q=40.004773,-105.102107","parts, retail",,OSM,way/520611196,40.0047725,-105.1021067
advance-auto-parts-co-6,Advance Auto Parts,Parts Shops and 4x4 Retailers,Highlands Ranch,CO,"6148, East County Line Road, Highlands Ranch, CO, 80126",,https://stores.advanceautoparts.com/co/highlands-ranch/6148-e-county-line-rd,"https://www.google.com/maps?q=39.565391,-104.916786","parts, retail",,OSM,node/6069480071,39.5653915,-104.9167862
advance-auto-parts-co-8,Advance Auto Parts,Parts Shops and 4x4 Retailers,Boulder,CO,"1709, 33rd Street, Boulder, CO, 80301",,https://stores.advanceautoparts.com/co/boulder/1709-33rd-street,"https://www.google.com/maps?q=40.016470,-105.250587","parts, retail",,OSM,node/7933507087,40.0164703,-105.2505872
advance-auto-parts-co-9,Advance Auto Parts,Parts Shops and 4x4 Retailers,Greeley,CO,"2647, 8th Avenue, Greeley, CO, 80631",,https://stores.advanceautoparts.com/co/greeley/2647-8th-ave,"https://www.google.com/maps?q=40.393964,-104.691842","parts, retail",,OSM,node/9779391602,40.393964,-104.6918421
advance-auto-parts-co-11,Advance Auto Parts,Parts Shops and 4x4 Retailers,Longmont,CO,"1410, Main Street, Longmont, CO, 80501",,https://stores.advanceautoparts.com/co/longmont/1410-main-st,"https://www.google.com/maps?q=40.183369,-105.102008","parts, retail",,OSM,way/147098175,40.1833693,-105.1020076
advance-auto-parts-co-13,Advance Auto Parts,Parts Shops and 4x4 Retailers,Grand Junction,CO,"2469, Highway 6 and 50, Grand Junction, CO, 81505",,https://stores.advanceautoparts.com/co/grand-junction/2469-highway-6-and-50,"https://www.google.com/maps?q=39.084797,-108.595422","parts, retail",,OSM,way/230404801,39.0847966,-108.595422
advance-auto-parts-co-14,Advance Auto Parts,Parts Shops and 4x4 Retailers,Commerce City,CO,"7070, State Highway 2, Commerce City, CO, 80022",,https://stores.advanceautoparts.com/co/commerce-city/7070-highway-2,"https://www.google.com/maps?q=39.825039,-104.917297","parts, retail",,OSM,way/263589945,39.8250393,-104.9172971
advance-auto-parts-co-15,Advance Auto Parts,Parts Shops and 4x4 Retailers,Broomfield,CO,"13675, Huron Street, Broomfield, CO, 80023",,https://stores.advanceautoparts.com/co/broomfield/13675-huron-st,"https://www.google.com/maps?q=39.944822,-104.997674","parts, retail",,OSM,way/292742942,39.944822,-104.9976743
advance-auto-parts-co-17,Advance Auto Parts,Parts Shops and 4x4 Retailers,Westminster,CO,"7485, West 92nd Avenue, Westminster, CO, 80021",,https://stores.advanceautoparts.com/co/westminster/7485-w-92nd-ave,"https://www.google.com/maps?q=39.864117,-105.080291","parts, retail",,OSM,way/448429648,39.8641173,-105.0802907
advance-auto-parts-co-18,Advance Auto Parts,Parts Shops and 4x4 Retailers,Thornton,CO,"950, East 88th Avenue, Thornton, CO, 80229",,https://stores.advanceautoparts.com/co/thornton/950-e-88th-ave,"https://www.google.com/maps?q=39.855983,-104.975259","parts, retail",,OSM,way/448754312,39.8559825,-104.975259
advance-auto-parts-co-20,Advance Auto Parts,Parts Shops and 4x4 Retailers,Littleton,CO,"Littleton, CO, 80122",,https://stores.advanceautoparts.com/co/centennial/7050-s-broadway,"https://www.google.com/maps?q=39.589820,-104.987931","parts, retail",,OSM,way/720665564,39.5898202,-104.9879312
advance-auto-parts-co-22,Advance Auto Parts,Parts Shops and 4x4 Retailers,Pueblo,CO,"2015, North Hudson Avenue, Pueblo, CO, 81001",,https://stores.advanceautoparts.com/co/pueblo/2015-n-hudson-ave,"https://www.google.com/maps?q=38.286464,-104.597873","parts, retail",,OSM,way/974169057,38.2864642,-104.597873
advance-auto-parts-co-10,Advance Auto Parts,Parts Shops and 4x4 Retailers,Centennial,CO,"6701, South Potomac Street, Centennial, CO, 80112",,https://stores.advanceautoparts.com/co/centennial/6701-s-potomac-st,"https://www.google.com/maps?q=39.594596,-104.831541","parts, retail",,OSM,way/1081536982,39.5945963,-104.831541
advance-auto-parts-co-7,Advance Auto Parts,Parts Shops and 4x4 Retailers,,CO,CO,,https://stores.advanceautoparts.com/co/fort-collins/3801-mitchell-dr,"https://www.google.com/maps?q=40.535221,-105.076498","parts, retail",,OSM,node/696257816,40.5352214,-105.0764983
andersen-s-u-pull-it-co,Andersen's U-Pull-It,Parts Shops and 4x4 Retailers,Greeley,CO,"1490, East 8th Street, Greeley, CO, 80631",+1-970-352-1300,http://andersensales.com/upi.html,"https://www.google.com/maps?q=40.423106,-104.657555","parts, retail",,OSM,way/241194524,40.4231063,-104.6575545
aragon-iron-metal-co,Aragon Iron & Metal,Parts Shops and 4x4 Retailers,Fort Collins,CO,"516, North US Highway 287, Fort Collins, CO, 80524-1345",+1-970-484-2577,http://www.aragonironandmetal.com/,"https://www.google.com/maps?q=40.623462,-105.085154","parts, retail",,OSM,way/112410403,40.623462,-105.0851544
attp-all-truck-and-trailer-parts-co,ATTP All Truck and Trailer Parts,Parts Shops and 4x4 Retailers,Denver,CO,"1300, West 62nd Avenue, Denver, CO, 80221",+1-303-301-7520,,"https://www.google.com/maps?q=39.808110,-105.002861","parts, retail",Trail builds,OSM,way/1109750176,39.8081104,-105.0028609
autoworks-co,Autoworks,Parts Shops and 4x4 Retailers,Grand Junction,CO,"2814, North Avenue, Grand Junction, CO, 81501",+1-970-628-1113,,"https://www.google.com/maps?q=39.077766,-108.531286","parts, retail",,OSM,node/11992550243,39.077766,-108.5312856
autozone-co-2,AutoZone,Parts Shops and 4x4 Retailers,Denver,CO,"6366, East Evans Avenue, Denver, CO, 80222",+1-303-756-9330,https://www.autozone.com/locations/co/denver/6366-e-evans-ave-unit-b.html,"https://www.google.com/maps?q=39.678022,-104.913235","parts, retail",,OSM,node/2930320373,39.678022,-104.913235
autozone-co-4,AutoZone,Parts Shops and 4x4 Retailers,Detla,CO,"97, Circle Drive, Detla, CO, 81416",+1-970-874-3670,https://www.autozone.com/locations/co/delta/97-circle-dr.html,"https://www.google.com/maps?q=38.751435,-108.055451","parts, retail",,OSM,node/4190065924,38.7514345,-108.0554505
autozone-co-8,AutoZone,Parts Shops and 4x4 Retailers,Aurora,CO,"13300, East Mississippi Avenue, Aurora, CO, 80012",+1-303-695-6400,https://www.autozone.com/locations/co/aurora/13300-e-mississippi-ave.html,"https://www.google.com/maps?q=39.696139,-104.834458","parts, retail",,OSM,node/9298363159,39.6961386,-104.834458
autozone-co,AutoZone,Parts Shops and 4x4 Retailers,Lone Tree,CO,"7469, Park Meadows Drive, Lone Tree, CO, 80124",+1-720-785-6530,https://www.autozone.com/locations/co/lone-tree/7469-park-meadows-dr.html,"https://www.google.com/maps?q=39.561030,-104.903865","parts, retail",,OSM,node/13474654741,39.5610303,-104.9038648
autozone-co-15,AutoZone,Parts Shops and 4x4 Retailers,Lafayette,CO,"1310, South Public Road, Lafayette, CO, 80026",+1-303-665-9000,https://www.autozone.com/locations/co/lafayette/1310-s-public-rd.html,"https://www.google.com/maps?q=39.986093,-105.089955","parts, retail",,OSM,way/36156853,39.9860934,-105.0899553
autozone-co-23,AutoZone,Parts Shops and 4x4 Retailers,Lakewood,CO,"12190, West Alameda Parkway, Lakewood, CO, 80228",+1-303-524-8120,https://www.autozone.com/locations/co/lakewood/12190-w-alameda-pkwy.html,"https://www.google.com/maps?q=39.705155,-105.136450","parts, retail",,OSM,way/58345957,39.7051546,-105.1364498
autozone-co-11,AutoZone,Parts Shops and 4x4 Retailers,Fort Collins,CO,"3602, Manhattan Avenue, Fort Collins, CO, 80526",+1-970-266-1100,https://www.autozone.com/locations/co/fort-collins/3602-manhattan-ave.html,"https://www.google.com/maps?q=40.537768,-105.082868","parts, retail",,OSM,way/171416191,40.537768,-105.0828681
autozone-co-12,AutoZone,Parts Shops and 4x4 Retailers,Colorado Springs,CO,"2441, East Platte Avenue, Colorado Springs, CO, 80909",+1-719-475-1000,https://www.autozone.com/locations/co/colorado-springs/2455-e-platte.html,"https://www.google.com/maps?q=38.837707,-104.782348","parts, retail",,OSM,way/199756606,38.8377066,-104.7823475
autozone-co-13,AutoZone,Parts Shops and 4x4 Retailers,Commerce City,CO,"6200, East 71st Place, Commerce City, CO, 80022",+1-303-287-2000,https://www.autozone.com/locations/co/commerce-city/6200-e-71st-place.html,"https://www.google.com/maps?q=39.826072,-104.915817","parts, retail",,OSM,way/260051044,39.8260718,-104.9158169
autozone-co-14,AutoZone,Parts Shops and 4x4 Retailers,Grand Junction,CO,"2522 1/2, US Highway 6 and 50, Grand Junction, CO, 81505",+1 970 255 9955,https://www.autozone.com/locations/co/grand-junction/2522-5-hwy-6---50.html,"https://www.google.com/maps?q=39.081794,-108.584948","parts, retail",,OSM,way/292429529,39.0817938,-108.5849482
autozone-co-18,AutoZone,Parts Shops and 4x4 Retailers,Loveland,CO,"3310, North Garfield Avenue, Loveland, CO, 80538",+1-970-613-0870,https://www.autozone.com/locations/co/loveland/3310-n-garfield.html,"https://www.google.com/maps?q=40.426247,-105.076821","parts, retail",,OSM,way/452749963,40.4262471,-105.0768215
autozone-co-20,AutoZone,Parts Shops and 4x4 Retailers,Clifton,CO,"3201, I 70 Business Loop, Clifton, CO, 81520",+1-970-434-0293,https://www.autozone.com/locations/co/clifton/3201-i-70-business-loop.html,"https://www.google.com/maps?q=39.086336,-108.458794","parts, retail",,OSM,way/480949983,39.0863364,-108.4587939
autozone-co-29,AutoZone,Parts Shops and 4x4 Retailers,Longmont,CO,"1375, Sherman Drive, Longmont, CO, 80501",+1 303 845 1016,https://www.autozone.com/locations/co/longmont/1375-sherman-dr.html,"https://www.google.com/maps?q=40.152751,-105.115990","parts, retail",,OSM,way/985009547,40.1527506,-105.1159899
autozone-co-9,AutoZone,Parts Shops and 4x4 Retailers,Fort Morgan,CO,"201, East Platte Avenue, Fort Morgan, CO, 80701",+1-970-542-0570,https://www.autozone.com/locations/co/fort-morgan/201-e-platte-ave.html,"https://www.google.com/maps?q=40.254570,-103.799689","parts, retail",,OSM,way/1095714511,40.25457,-103.7996895
autozone-co-7,AutoZone,Parts Shops and 4x4 Retailers,,CO,CO,+1-970-249-1940,https://www.autozone.com/locations/co/montrose/257-e-main-st.html,"https://www.google.com/maps?q=38.479090,-107.878552","parts, retail",,OSM,node/7563249803,38.4790904,-107.8785524
autozone-co-3,AutoZone,Parts Shops and 4x4 Retailers,Parker,CO,"10157, South Parker Road, Parker, CO, 80134",,https://www.autozone.com/locations/co/parker/10157-s-parker-rd.html,"https://www.google.com/maps?q=39.534380,-104.767926","parts, retail",,OSM,node/3329946525,39.5343803,-104.767926
autozone-co-5,AutoZone,Parts Shops and 4x4 Retailers,Northglenn,CO,"West 104th Avenue, Northglenn, CO, 80234",,https://www.autozone.com/locations/co/northglenn/1002-w-104th-ave.html,"https://www.google.com/maps?q=39.883840,-104.998315","parts, retail",,OSM,node/6194096832,39.8838403,-104.9983153
autozone-co-6,AutoZone,Parts Shops and 4x4 Retailers,Gypsum,CO,"100, Cooley Mesa Road, Gypsum, CO, 81637",,https://www.autozone.com/locations/co/gypsum/100-cooley-mesa-rd.html,"https://www.google.com/maps?q=39.644366,-106.887652","parts, retail",,OSM,node/6289395339,39.6443664,-106.8876521
autozone-co-16,AutoZone,Parts Shops and 4x4 Retailers,Broomfield,CO,"6795, West 120th Avenue, Broomfield, CO, 80020",,https://www.autozone.com/locations/co/broomfield/6795-w-120th-ave.html,"https://www.google.com/maps?q=39.914811,-105.071409","parts, retail",,OSM,way/369381773,39.9148111,-105.0714086
autozone-co-17,AutoZone,Parts Shops and 4x4 Retailers,Thornton,CO,"3705, East 104th Avenue, Thornton, CO, 80233",,https://www.autozone.com/locations/co/thornton/3705-e-104th-ave.html,"https://www.google.com/maps?q=39.885487,-104.942715","parts, retail",,OSM,way/448964111,39.8854872,-104.9427148
autozone-co-19,AutoZone,Parts Shops and 4x4 Retailers,Peyton,CO,"11735, Meridian Market Vw, Peyton, CO, 80831",,https://www.autozone.com/locations/co/peyton/11735-meridian-market-view.html,"https://www.google.com/maps?q=38.940090,-104.609287","parts, retail",,OSM,way/477020112,38.9400897,-104.6092867
autozone-co-21,AutoZone,Parts Shops and 4x4 Retailers,Eaton,CO,"385, South Elm Road, Eaton, CO, 80615",,https://www.autozone.com/locations/co/eaton/385-s-elm-rd.html,"https://www.google.com/maps?q=40.519877,-104.709330","parts, retail",,OSM,way/535678509,40.519877,-104.7093301
autozone-co-22,AutoZone,Parts Shops and 4x4 Retailers,Pueblo,CO,"1617, US 50, Pueblo, CO, 81008",,https://www.autozone.com/locations/co/pueblo/1617-w-us-hwy-50--ste-170.html,"https://www.google.com/maps?q=38.310950,-104.628492","parts, retail",,OSM,way/544400970,38.3109499,-104.628492
autozone-co-24,AutoZone,Parts Shops and 4x4 Retailers,Federal Heights,CO,"9540, Federal Boulevard, Federal Heights, CO, 80260",,https://www.autozone.com/locations/co/denver/9540-federal-blvd.html,"https://www.google.com/maps?q=39.869697,-105.024426","parts, retail",,OSM,way/687615787,39.8696967,-105.0244256
autozone-co-25,AutoZone,Parts Shops and 4x4 Retailers,Trinidad,CO,"2000, Freedom Road, Trinidad, CO, 81082",,https://www.autozone.com/locations/co/trinidad/2000-freedom-rd.html,"https://www.google.com/maps?q=37.187838,-104.496836","parts, retail",,OSM,way/782892846,37.1878381,-104.4968362
autozone-co-26,AutoZone,Parts Shops and 4x4 Retailers,Brighton,CO,"909, East Bridge Street, Brighton, CO, 80601",,https://www.autozone.com/locations/co/brighton/909-bridge-st.html,"https://www.google.com/maps?q=39.987186,-104.810944","parts, retail",,OSM,way/806194773,39.9871861,-104.8109441
autozone-co-27,AutoZone,Parts Shops and 4x4 Retailers,Firestone,CO,"10925, Colorado Boulevard, Firestone, CO, 80504",,https://www.autozone.com/locations/co/firestone/10925-colorado-blvd.html,"https://www.google.com/maps?q=40.159157,-104.942583","parts, retail",,OSM,way/814042692,40.1591574,-104.9425827
autozone-co-28,AutoZone,Parts Shops and 4x4 Retailers,Centennial,CO,"10380, East Arapahoe Road, Centennial, CO, 80112",,https://www.autozone.com/locations/co/centennial/10380-e-arapahoe-rd.html,"https://www.google.com/maps?q=39.594586,-104.868115","parts, retail",,OSM,way/950226563,39.5945864,-104.8681151
autozone-co-10,AutoZone,Parts Shops and 4x4 Retailers,Arvada,CO,"9300, Ralston Road, Arvada, CO, 80002",+1-303-424-3000,,"https://www.google.com/maps?q=39.801736,-105.101497","parts, retail",,OSM,way/1312484154,39.8017359,-105.1014967
bullhide-4x4-auto-accessories-co,Bullhide 4x4 Auto Accessories,Parts Shops and 4x4 Retailers,Fort Collins,CO,"216, Horsetooth Road, Fort Collins, CO, 80525",,https://www.bullhide4x4.com/,"https://www.google.com/maps?q=40.538561,-105.079942","parts, retail, 4x4",4x4 focused,OSM,node/6434266478,40.5385608,-105.079942
cap-it-covers-co,Cap-It Covers,Parts Shops and 4x4 Retailers,Fort Collins,CO,"3525, East Mulberry Street, Fort Collins, CO, 80524",+1-970-224-0211,http://capitcovers.com/,"https://www.google.com/maps?q=40.580562,-105.011164","parts, retail",,OSM,way/483548325,40.5805616,-105.0111643
carquest-co,Carquest,Parts Shops and 4x4 Retailers,Aspen Park,CO,"26591, Main Street, Aspen Park, CO, 80433",+1-303-816-7422,https://www.carquest.com,"https://www.google.com/maps?q=39.537372,-105.301326","parts, retail",,OSM,way/149966751,39.5373719,-105.3013263
carquest-co-2,Carquest,Parts Shops and 4x4 Retailers,Bennett,CO,"700, Colfax Avenue, Bennett, CO, 80102",+1-303-644-3311,https://www.carquest.com/locations/co/bennett/6584/,"https://www.google.com/maps?q=39.755449,-104.424789","parts, retail",,OSM,way/498980337,39.7554487,-104.4247886
casper-s-electronics-co,Casper's Electronics,Parts Shops and 4x4 Retailers,Loveland,CO,"5840, Byrd Drive, Loveland, CO, 80538",+1-970-776-8740,http://www.casperselectronics.com/,"https://www.google.com/maps?q=40.452925,-104.993279","parts, retail",,OSM,way/57961276,40.452925,-104.9932792
center-parts-store-co,Center Parts Store,Parts Shops and 4x4 Retailers,Center,CO,"651, South Torres Street, Center, CO, 81125",+1-719-754-2766,https://www.carquest.com/stores/co/center/5392,"https://www.google.com/maps?q=37.749958,-106.103513","parts, retail",,OSM,way/785503025,37.7499583,-106.1035129
complete-auto-glass-co,Complete Auto Glass,Parts Shops and 4x4 Retailers,Thornton,CO,"761, West 84th Avenue, Thornton, CO, 80260",+1-303-993-2935,https://www.mycompleteautoglass.com/,"https://www.google.com/maps?q=39.849345,-104.996143","parts, retail",,OSM,way/1346558284,39.8493455,-104.9961429
discount-exhaust-works-co,Discount Exhaust Works,Parts Shops and 4x4 Retailers,,CO,"3930, Galley Road, CO, 80909",+1-719-638-4580,http://www.discountexhaustworks.com/,"https://www.google.com/maps?q=38.847498,-104.755179","parts, retail",,OSM,way/202771442,38.8474982,-104.7551787
erie-auto-salvage-co,Erie Auto Salvage,Parts Shops and 4x4 Retailers,Dacono,CO,"4878, East I 25 Frontage Road, Dacono, CO, 80514",+1-303-833-5820,http://www.erieautosalvage.com/,"https://www.google.com/maps?q=40.070893,-104.979251","parts, retail, salvage, junkyard, used-parts",,OSM,way/363659188,40.0708931,-104.9792514
fort-collins-auto-salvage-co,Fort Collins Auto Salvage,Parts Shops and 4x4 Retailers,Fort Collins,CO,"226, 12th Street, Fort Collins, CO, 80524",+1-970-484-1000,http://fortcollinsautosalvage.com,"https://www.google.com/maps?q=40.585137,-105.053043","parts, retail, salvage",,OSM,node/8019178025,40.5851368,-105.0530426
interwest-auto-films-co,Interwest Auto Films,Parts Shops and 4x4 Retailers,Littleton,CO,"2275, West Chenango Avenue, Littleton, CO, 80120",+1-800-232-8468,https://interwestautofilms.com/,"https://www.google.com/maps?q=39.627541,-105.014491","parts, retail",,OSM,node/8674838279,39.6275405,-105.0144907
keystone-automotive-industries-co,Keystone Automotive Industries,Parts Shops and 4x4 Retailers,Colorado Springs,CO,"1727, Jet Stream Drive, Colorado Springs, CO, 80921",+1-303-333-9911,https://locations.lkqcorp.com/us/co/colorado-springs/1727-jetstream-drive/,"https://www.google.com/maps?q=38.996826,-104.795143","parts, retail",,OSM,node/12424081075,38.9968265,-104.7951433
kirby-s-hitch-wiring-co,Kirby's Hitch & Wiring,Parts Shops and 4x4 Retailers,,CO,CO,,https://www.kirbyshitch.com/,"https://www.google.com/maps?q=40.394178,-105.072914","parts, retail",,OSM,node/8089818830,40.3941782,-105.072914
littleton-u-pull-automotive-recycling-co,Littleton U-Pull Automotive Recycling,Parts Shops and 4x4 Retailers,Littleton,CO,"5100, Aspen Leaf Drive, Littleton, CO, 80125",+1-303-791-1380,http://www.littletonupull.com/,"https://www.google.com/maps?q=39.487229,-104.997230","parts, retail",,OSM,node/8132996010,39.4872291,-104.9972302
lkq-pick-your-part-co,LKQ Pick Your Part,Parts Shops and 4x4 Retailers,Aurora,CO,"11602, East 33rd Avenue, Aurora, CO, 80010-1425",+1-303-365-2001,http://www.pickyourpart.com,"https://www.google.com/maps?q=39.763235,-104.853185","parts, retail",,OSM,way/282727122,39.7632345,-104.8531849
lkq-pick-your-part-co-2,LKQ Pick Your Part,Parts Shops and 4x4 Retailers,Clayton,CO,"6100, Federal Boulevard, CO, 80221",+1-800-962-2277,https://www.lkqpickyourpart.com/,"https://www.google.com/maps?q=39.806785,-105.024570","parts, retail",,OSM,way/580911059,39.8067846,-105.0245698
mil-spec-liner-of-douglas-county-co,Mil-Spec Liner of Douglas County,Parts Shops and 4x4 Retailers,Castle Rock,CO,"624, Atchison Way, Castle Rock, CO, 80109",+1-303-900-7795,https://www.milspecofdouglascounty.com/,"https://www.google.com/maps?q=39.376377,-104.870887","parts, retail",,OSM,node/12530400960,39.3763772,-104.8708866
napa-auto-parts-co-2,NAPA Auto Parts,Parts Shops and 4x4 Retailers,Aurora,CO,"18851, East Hampden Avenue, Aurora, CO, 80013",+1-303-695-3005,https://www.napaonline.com/co/aurora/havana-auto5,"https://www.google.com/maps?q=39.653885,-104.768668","parts, retail",,OSM,node/3485752579,39.6538852,-104.768668
napa-auto-parts-co-3,NAPA Auto Parts,Parts Shops and 4x4 Retailers,Flagler,CO,"224, East High Street, Flagler, CO, 80815",+1-719-765-4646,https://www.napaonline.com/co/flagler,"https://www.google.com/maps?q=39.287732,-103.063581","parts, retail",,OSM,node/3562349140,39.2877318,-103.063581
napa-auto-parts-co-4,NAPA Auto Parts,Parts Shops and 4x4 Retailers,Keenesburg,CO,"87, Main Street, Keenesburg, CO, 80643",+1-303-732-4820,https://www.napaonline.com/co/keenesburg/store/21877?cid=pl_yext_jobber_KeeneAutoParts_21877,"https://www.google.com/maps?q=40.108253,-104.520226","parts, retail",,OSM,node/4186477558,40.1082533,-104.520226
napa-auto-parts-co-9,NAPA Auto Parts,Parts Shops and 4x4 Retailers,Wheat Ridge,CO,"10100, West 49th Avenue, Wheat Ridge, CO, 80033",+1-303-420-5003,https://www.napaonline.com/,"https://www.google.com/maps?q=39.785928,-105.111199","parts, retail",,OSM,way/429703970,39.7859277,-105.1111992
napa-auto-parts-co-11,NAPA Auto Parts,Parts Shops and 4x4 Retailers,Grand Junction,CO,"1227, Pitkin Avenue, Grand Junction, CO, 81501",+1-970-242-2077,https://www.napaonline.com/en/co/grand-junction/store/26245,"https://www.google.com/maps?q=39.064048,-108.551469","parts, retail",,OSM,way/497199383,39.064048,-108.5514692
napa-auto-parts-co-12,NAPA Auto Parts,Parts Shops and 4x4 Retailers,Elizabeth,CO,"709, Crossroads Circle, Elizabeth, CO, 80107",+1-303-646-3050,https://www.napaonline.com/en/co/elizabeth/store/25944?cid=pl_yext_jobber_TheRockPartsCompany_25944,"https://www.google.com/maps?q=39.362741,-104.590901","parts, retail",,OSM,way/701411873,39.362741,-104.5909006
napa-auto-parts-co-13,NAPA Auto Parts,Parts Shops and 4x4 Retailers,Brighton,CO,"68, North 18th Avenue, Brighton, CO, 80601",+1-303-659-3933,https://www.napaonline.com/en/co/brighton/store/24434?cid=pl_yext_gpc_GenuinePartsCompany_24434,"https://www.google.com/maps?q=39.988094,-104.800185","parts, retail",,OSM,way/956892131,39.988094,-104.800185
napa-auto-parts-co-6,NAPA Auto Parts,Parts Shops and 4x4 Retailers,,CO,"221, Cedar Street, CO, 80737",+1-970-474 - 2067,https://www.napaonline.com/co/julesburg,"https://www.google.com/maps?q=40.987881,-102.264062","parts, retail, repair, mechanic",,OSM,way/177246441,40.987881,-102.2640617
napa-auto-parts-co,NAPA Auto Parts,Parts Shops and 4x4 Retailers,Denver,CO,"3250, East 43rd Avenue, Denver, CO, 80216",+1-303-295-2585,,"https://www.google.com/maps?q=39.776198,-104.949012","parts, retail",,OSM,node/13472655817,39.7761984,-104.9490118
napa-auto-parts-co-7,NAPA Auto Parts,Parts Shops and 4x4 Retailers,Fort Collins,CO,"316, South Link Lane, Fort Collins, CO, 80524",+1-970-407-0020,,"https://www.google.com/maps?q=40.584171,-105.049285","parts, retail",,OSM,way/183385007,40.5841708,-105.0492853
napa-auto-parts-co-8,NAPA Auto Parts,Parts Shops and 4x4 Retailers,Colorado Springs,CO,"3999, North Academy Boulevard, Colorado Springs, CO, 80917",+1-719-574-1650,,"https://www.google.com/maps?q=38.890097,-104.755687","parts, retail",,OSM,way/191532246,38.8900973,-104.7556869
napa-auto-parts-co-10,NAPA Auto Parts,Parts Shops and 4x4 Retailers,Erie,CO,"1020, Carbon Court, Erie, CO, 80516",+1-720-235-3130,,"https://www.google.com/maps?q=40.030451,-105.054564","parts, retail",,OSM,way/472679922,40.0304515,-105.0545635
napa-auto-parts-co-5,NAPA Auto Parts,Parts Shops and 4x4 Retailers,Fort Morgan,CO,"1001, West Platte Avenue, Fort Morgan, CO, 80701",+1-970-867-2449,,"https://www.google.com/maps?q=40.254435,-103.814565","parts, retail",,OSM,way/1092505272,40.2544345,-103.8145645
noco-line-x-and-truck-gear-co,NoCo Line-X and Truck Gear,Parts Shops and 4x4 Retailers,,CO,CO,,https://www.nocoline-x.com/,"https://www.google.com/maps?q=40.378860,-105.076000","parts, retail",,OSM,node/9487683436,40.3788596,-105.0759997
o-reilly-auto-parts-co,O' Reilly Auto Parts,Parts Shops and 4x4 Retailers,Salida,CO,"7859, US 50, Salida, CO, 81201",+1 719 539 8590,https://locations.oreillyauto.com/co/salida/autoparts-3000.html,"https://www.google.com/maps?q=38.523641,-106.021384","parts, retail",,OSM,way/421700662,38.5236415,-106.0213844
o-reilly-auto-parts-co-5,O'Reilly Auto Parts,Parts Shops and 4x4 Retailers,Fort Collins,CO,"4372, South College Avenue, Fort Collins, CO, 80525-3081",+1-970-223-5329,https://locations.oreillyauto.com/co/fortcollins/autoparts-2725.html,"https://www.google.com/maps?q=40.526311,-105.076552","parts, retail",,OSM,node/696277741,40.5263111,-105.0765517
o-reilly-auto-parts-co-2,O'Reilly Auto Parts,Parts Shops and 4x4 Retailers,Aurora,CO,"18800, East Hampden Avenue, Aurora, CO, 80013",+1-303-617-6463,https://locations.oreillyauto.com/co/aurora/autoparts-3784.html,"https://www.google.com/maps?q=39.652594,-104.768472","parts, retail",,OSM,node/1272535741,39.6525938,-104.768472
o-reilly-auto-parts-co-4,O'Reilly Auto Parts,Parts Shops and 4x4 Retailers,Denver,CO,"2887, Colorado Boulevard, Denver, CO, 80207",+1-303-333-2611,https://locations.oreillyauto.com/co/denver/autoparts-2637.html,"https://www.google.com/maps?q=39.757934,-104.941085","parts, retail",,OSM,node/4898671373,39.7579342,-104.941085
o-reilly-auto-parts-co-20,O'Reilly Auto Parts,Parts Shops and 4x4 Retailers,Englewood,CO,"257, West Hampden Avenue, Englewood, CO, 80110",+1-303-781-4853,https://locations.oreillyauto.com/co/englewood/autoparts-2610.html,"https://www.google.com/maps?q=39.653912,-104.990920","parts, retail",,OSM,way/50290838,39.6539124,-104.9909204
o-reilly-auto-parts-co-23,O'Reilly Auto Parts,Parts Shops and 4x4 Retailers,Lakewood,CO,"12180, West Alameda Parkway, Lakewood, CO, 80228",+1-303-969-8231,https://locations.oreillyauto.com/co/lakewood/autoparts-2696.html,"https://www.google.com/maps?q=39.705491,-105.136088","parts, retail",,OSM,way/58345892,39.7054913,-105.1360879
o-reilly-auto-parts-co-13,O'Reilly Auto Parts,Parts Shops and 4x4 Retailers,Colorado Springs,CO,"433, East Fillmore Street, Colorado Springs, CO, 80907",+1-719-473-1308,https://locations.oreillyauto.com/co/coloradosprings/autoparts-3620.html,"https://www.google.com/maps?q=38.873771,-104.813828","parts, retail",,OSM,way/209818685,38.8737712,-104.8138285
o-reilly-auto-parts-co-14,O'Reilly Auto Parts,Parts Shops and 4x4 Retailers,Commerce City,CO,"6091, East 72nd Avenue, Commerce City, CO, 80022",+1 303 289 2511,https://locations.oreillyauto.com/co/commercecity/autoparts-3170.html,"https://www.google.com/maps?q=39.827649,-104.917799","parts, retail",,OSM,way/260051416,39.8276493,-104.917799
o-reilly-auto-parts-co-18,O'Reilly Auto Parts,Parts Shops and 4x4 Retailers,Loveland,CO,"108, Knobcone Drive, Loveland, CO, 80538",+1-970-612-1250,https://locations.oreillyauto.com/co/loveland/autoparts-4802.html,"https://www.google.com/maps?q=40.437920,-105.076801","parts, retail",,OSM,way/446026788,40.43792,-105.0768006
o-reilly-auto-parts-co-19,O'Reilly Auto Parts,Parts Shops and 4x4 Retailers,Clifton,CO,"3221, I 70 Business Loop, Clifton, CO, 81520",+1-970-434-4117,https://locations.oreillyauto.com/co/clifton/autoparts-2993.html,"https://www.google.com/maps?q=39.089923,-108.454572","parts, retail",,OSM,way/497021419,39.0899225,-108.4545725
o-reilly-auto-parts-co-22,O'Reilly Auto Parts,Parts Shops and 4x4 Retailers,Delta,CO,"211, State Highway 92, Delta, CO",+1-970-399-1594,https://locations.oreillyauto.com/co/delta/autoparts-5602.html,"https://www.google.com/maps?q=38.746341,-108.069448","parts, retail",,OSM,way/551774992,38.7463411,-108.0694481
o-reilly-auto-parts-co-24,O'Reilly Auto Parts,Parts Shops and 4x4 Retailers,Thornton,CO,"8611, Washington Street, Thornton, CO, 80229",+1-303-287-3543,https://locations.oreillyauto.com/co/thornton/autoparts-2630.html,"https://www.google.com/maps?q=39.852981,-104.978516","parts, retail",,OSM,way/603474809,39.852981,-104.9785156
o-reilly-auto-parts-co-25,O'Reilly Auto Parts,Parts Shops and 4x4 Retailers,Grand Junction,CO,"2844, North Avenue, Grand Junction, CO, 81501",+1 970 245 9127,https://locations.oreillyauto.com/co/grandjunction/autoparts-2748.html,"https://www.google.com/maps?q=39.078043,-108.525237","parts, retail",,OSM,way/605285745,39.0780426,-108.5252372
o-reilly-auto-parts-co-26,O'Reilly Auto Parts,Parts Shops and 4x4 Retailers,Wheat Ridge,CO,"4490, Wadsworth Boulevard, Wheat Ridge, CO, 80033",+1-303-463-5340,https://locations.oreillyauto.com/co/wheatridge/autoparts-3672.html,"https://www.google.com/maps?q=39.778107,-105.080913","parts, retail",,OSM,way/658861950,39.7781074,-105.080913
o-reilly-auto-parts-co-8,O'Reilly Auto Parts,Parts Shops and 4x4 Retailers,Wellington,CO,"8155, 6th Street, Wellington, CO, 80549",+1-970-530-2979,https://locations.oreillyauto.com/co/wellington/autoparts-6326.html,"https://www.google.com/maps?q=40.703521,-105.001060","parts, retail",,OSM,way/1120929069,40.7035214,-105.0010599
o-reilly-auto-parts-co-9,O'Reilly Auto Parts,Parts Shops and 4x4 Retailers,Fountain,CO,"7985, Fountain Mesa Road, Fountain, CO, 80817",+1-719-394-3319,https://locations.oreillyauto.com/co/fountain/autoparts-5803.html,"https://www.google.com/maps?q=38.715963,-104.700992","parts, retail",,OSM,way/1216577607,38.715963,-104.7009917
o-reilly-auto-parts-co-12,O'Reilly Auto Parts,Parts Shops and 4x4 Retailers,Cortez,CO,"1853, East Main Street, Cortez, CO, 81321",+1-970-565-4122,https://locations.oreillyauto.com/co/cortez/autoparts-4702.html,"https://www.google.com/maps?q=37.348605,-108.561648","parts, retail",,OSM,way/1385212642,37.3486054,-108.5616475
o-reilly-auto-parts-co-3,O'Reilly Auto Parts,Parts Shops and 4x4 Retailers,,CO,"1716, East Woodmen Road, CO, 80920",+1-719-532-0029,https://www.oreillyauto.com/,"https://www.google.com/maps?q=38.933009,-104.794162","parts, retail",,OSM,node/2268556801,38.9330094,-104.7941621
o-reilly-auto-parts-co-11,O'Reilly Auto Parts,Parts Shops and 4x4 Retailers,Trinidad,CO,"2905, Toupal Drive, Trinidad, CO, 81082",,https://locations.oreillyauto.com/co/trinidad/autoparts-3004.html,"https://www.google.com/maps?q=37.139598,-104.521117","parts, retail",,OSM,way/130665361,37.1395979,-104.5211168
o-reilly-auto-parts-co-15,O'Reilly Auto Parts,Parts Shops and 4x4 Retailers,Estes Park,CO,"1181, Graves Avenue, Estes Park, CO, 80517",+1-970-577-6156,,"https://www.google.com/maps?q=40.369502,-105.503861","parts, retail",,OSM,way/330418070,40.3695021,-105.5038614
o-reilly-auto-parts-co-16,O'Reilly Auto Parts,Parts Shops and 4x4 Retailers,Broomfield,CO,"6785, West 120th Avenue, Broomfield, CO, 80020",,https://locations.oreillyauto.com/co/broomfield/autoparts-2762.html,"https://www.google.com/maps?q=39.915348,-105.071101","parts, retail",,OSM,way/369381419,39.9153476,-105.0711008
o-reilly-auto-parts-co-17,O'Reilly Auto Parts,Parts Shops and 4x4 Retailers,Parker,CO,"19202, Longs Way, Parker, CO, 80138",,https://locations.oreillyauto.com/co/parker/autoparts-2858.html,"https://www.google.com/maps?q=39.524163,-104.765055","parts, retail",,OSM,way/423123915,39.5241631,-104.7650545
o-reilly-auto-parts-co-21,O'Reilly Auto Parts,Parts Shops and 4x4 Retailers,Pueblo,CO,"1005, West US Highway 50, Pueblo, CO, 81008",,https://locations.oreillyauto.com/co/pueblo/autoparts-2933.html,"https://www.google.com/maps?q=38.309044,-104.622540","parts, retail",,OSM,way/543804615,38.3090436,-104.6225397
o-reilly-auto-parts-co-27,O'Reilly Auto Parts,Parts Shops and 4x4 Retailers,Fort Lupton,CO,"100, South Harrison Avenue, Fort Lupton, CO, 80621",,https://locations.oreillyauto.com/co/fortlupton/autoparts-4489.html,"https://www.google.com/maps?q=40.079770,-104.805749","parts, retail",,OSM,way/665478946,40.0797699,-104.8057492
o-reilly-auto-parts-co-28,O'Reilly Auto Parts,Parts Shops and 4x4 Retailers,Bennett,CO,"350, South 1st Street, Bennett, CO, 80102",,https://locations.oreillyauto.com/co/bennett/autoparts-4905.html,"https://www.google.com/maps?q=39.752085,-104.432379","parts, retail",,OSM,way/686557437,39.7520849,-104.432379
o-reilly-auto-parts-co-29,O'Reilly Auto Parts,Parts Shops and 4x4 Retailers,Fruita,CO,"1672, Highway 6 and 50, Fruita, CO, 81521",,https://locations.oreillyauto.com/co/fruita/autoparts-5590.html,"https://www.google.com/maps?q=39.161092,-108.743221","parts, retail",,OSM,way/754402270,39.1610917,-108.7432212
o-reilly-auto-parts-co-30,O'Reilly Auto Parts,Parts Shops and 4x4 Retailers,Lamar,CO,"421, Main Street, Lamar, CO, 81052",,https://locations.oreillyauto.com/co/lamar/autoparts-2906.html,"https://www.google.com/maps?q=38.093816,-102.620164","parts, retail",,OSM,way/801828829,38.0938161,-102.6201643
o-reilly-auto-parts-co-31,O'Reilly Auto Parts,Parts Shops and 4x4 Retailers,Brighton,CO,"1121, East Bridge Street, Brighton, CO, 80601",,https://locations.oreillyauto.com/co/brighton/autoparts-3093.html,"https://www.google.com/maps?q=39.987161,-104.808214","parts, retail",,OSM,way/806194782,39.9871608,-104.8082137
o-reilly-auto-parts-co-32,O'Reilly Auto Parts,Parts Shops and 4x4 Retailers,Firestone,CO,"5919, Firestone Boulevard, Firestone, CO, 80504",,https://locations.oreillyauto.com/co/firestone/autoparts-3644.html,"https://www.google.com/maps?q=40.161226,-104.943721","parts, retail",,OSM,way/814034661,40.1612257,-104.9437214
o-reilly-auto-parts-co-33,O'Reilly Auto Parts,Parts Shops and 4x4 Retailers,Longmont,CO,"1417, Main Street, Longmont, CO, 80501",,https://locations.oreillyauto.com/co/longmont/autoparts-3193.html,"https://www.google.com/maps?q=40.183845,-105.102901","parts, retail",,OSM,way/821099599,40.1838452,-105.1029013
o-reilly-auto-parts-co-34,O'Reilly Auto Parts,Parts Shops and 4x4 Retailers,Elizabeth,CO,"795, Crossroads Circle, Elizabeth, CO, 80107",,https://locations.oreillyauto.com/co/elizabeth/autoparts-5934.html,"https://www.google.com/maps?q=39.361897,-104.589860","parts, retail",,OSM,way/921601770,39.3618975,-104.5898596
o-reilly-auto-parts-co-6,O'Reilly Auto Parts,Parts Shops and 4x4 Retailers,Federal Heights,CO,"9280, Federal Boulevard, Federal Heights, CO, 80260",,https://locations.oreillyauto.com/co/federalheights/autoparts-2809.html,"https://www.google.com/maps?q=39.865140,-105.024517","parts, retail",,OSM,way/1034348385,39.8651396,-105.024517
o-reilly-auto-parts-co-7,O'Reilly Auto Parts,Parts Shops and 4x4 Retailers,Gunnison,CO,"1129, North Main Street, Gunnison, CO, 81230",,https://locations.oreillyauto.com/co/gunnison/autoparts-4812.html,"https://www.google.com/maps?q=38.557300,-106.927494","parts, retail",,OSM,way/1078016144,38.5572997,-106.9274941
o-reilly-auto-parts-co-10,O'Reilly Auto Parts,Parts Shops and 4x4 Retailers,Centennial,CO,"6751, South Potomac Street, Centennial, CO, 80112",,https://locations.oreillyauto.com/co/centennial/autoparts-6093.html,"https://www.google.com/maps?q=39.593740,-104.831746","parts, retail",,OSM,way/1241967058,39.5937404,-104.8317456
open-road-outfitter-co,Open Road Outfitter,Parts Shops and 4x4 Retailers,Denver,CO,"80, South Cherokee Street, Denver, CO, 80223",+1-303-733-7777,https://www.openroadoutfitter.com/,"https://www.google.com/maps?q=39.715158,-104.991944","parts, retail",,OSM,way/714374762,39.7151584,-104.9919438
optimized-distribution-partners-co,Optimized Distribution Partners,Parts Shops and 4x4 Retailers,Commerce City,CO,"7011, East 53rd Place, Commerce City, CO, 80022",+1-303-278-7790,,"https://www.google.com/maps?q=39.794282,-104.907582","parts, retail",,OSM,node/11099293282,39.794282,-104.9075821
pantera-performance-center-co,Pantera Performance Center,Parts Shops and 4x4 Retailers,Castle Rock,CO,"1856, Park Street, Castle Rock, CO, 80109",+1-303-660-9897,https://www.panteraperformance.com/,"https://www.google.com/maps?q=39.387246,-104.868603","parts, retail",,OSM,way/958726391,39.3872461,-104.8686028
pgw-autoglass-co,PGW autoglass,Parts Shops and 4x4 Retailers,Grand Junction,CO,"2892, North Avenue, Grand Junction, CO, 81501",+1-970-245-1363;+1-888-774-2886,https://www.pgwautoglass.com/,"https://www.google.com/maps?q=39.078474,-108.516933","parts, retail",,OSM,way/638712649,39.0784745,-108.5169334
r-r-discount-car-audio-co,R&R Discount Car Audio,Parts Shops and 4x4 Retailers,,CO,CO,+1-970-256-7373,,"https://www.google.com/maps?q=39.077706,-108.550511","parts, retail",,OSM,node/10858278575,39.077706,-108.5505113
rack-attack-denver-co,Rack Attack Denver,Parts Shops and 4x4 Retailers,Denver,CO,"5550, East Evans Avenue, Denver, CO, 80222",+1-720-681-6338,,"https://www.google.com/maps?q=39.678132,-104.923085","parts, retail",,OSM,way/1122785895,39.6781321,-104.9230846
rvi-co,RVi,Parts Shops and 4x4 Retailers,Castle Rock,CO,"624, Atchison Way, Castle Rock, CO, 80109",+1-800-815-2159,https://rvibrake.com/,"https://www.google.com/maps?q=39.376508,-104.871074","parts, retail",,OSM,node/12530400961,39.376508,-104.8710742
scott-s-used-parts-co,Scott's Used Parts,Parts Shops and 4x4 Retailers,Fort Collins,CO,"209, North Link Lane, Fort Collins, CO, 80524",+1-970-498-0662,https://www.hondapartsused.com/,"https://www.google.com/maps?q=40.588488,-105.049068","parts, retail",,OSM,way/183384976,40.5884876,-105.0490681
sherpa-equipment-company-co,Sherpa Equipment Company,Parts Shops and 4x4 Retailers,Berthoud,CO,"1005, North 2nd Street, Berthoud, CO, 80513",+1-970-660-8134,,"https://www.google.com/maps?q=40.311096,-105.076614","parts, retail",,OSM,node/12880398734,40.3110957,-105.0766139
suburban-toppers-co,Suburban Toppers,Parts Shops and 4x4 Retailers,,CO,"5795, East Colfax Avenue, CO, 80220",+1 303 320 8677,https://www.suburbantoppers.com/,"https://www.google.com/maps?q=39.740355,-104.920286","parts, retail",,OSM,node/13112919901,39.7403549,-104.9202859
u-pull-pay-of-aurora-co,U Pull & Pay of Aurora,Parts Shops and 4x4 Retailers,Aurora,CO,"1370, Zeno Street, Aurora, CO, 80011",+1-303-364-4221,https://upullandpay.com/aurora/home/,"https://www.google.com/maps?q=39.738056,-104.773206","parts, retail",,OSM,node/7982347591,39.7380557,-104.773206
u-pull-and-pay-co,U-Pull-And-Pay,Parts Shops and 4x4 Retailers,Denver,CO,"390, West 66th Way, Denver, CO, 80221",+1-303-650-0490,http://upullandpay.com/denver/home/,"https://www.google.com/maps?q=39.818202,-104.990807","parts, retail",,OSM,way/364439879,39.8182025,-104.9908071
western-auto-recycling-co,Western Auto Recycling,Parts Shops and 4x4 Retailers,Commerce City,CO,"7481, Kearney Street, Commerce City, CO, 80022",+1-303-578-4108,https://westernautorecyclingdenver.com/,"https://www.google.com/maps?q=39.832778,-104.917746","parts, retail",,OSM,node/8064229108,39.8327776,-104.9177457
woller-auto-parts-inc-co,Woller Auto Parts Inc,Parts Shops and 4x4 Retailers,Lamar,CO,"8227, County Road SS, Lamar, CO, 81052",+1-719-336-2108,,"https://www.google.com/maps?q=38.201979,-102.610414","parts, retail",,OSM,node/4543000344,38.201979,-102.610414
285-lube-oil-co,285 Lube & Oil,Repair Shops (XJ/Jeep-Friendly),Aspen Park,CO,"26361, Main Street, Aspen Park, CO, 80433",+1-303-838-4432,,"https://www.google.com/maps?q=39.538015,-105.300533","repair, mechanic",,OSM,way/149966744,39.5380147,-105.3005333
360-diesel-and-auto-repair-co,360 Diesel and Auto Repair,Repair Shops (XJ/Jeep-Friendly),Elizabeth,CO,"381, East Kiowa Avenue, Elizabeth, CO, 80107",+1-720-573-8781,https://www.360dieselandautorepair.net/,"https://www.google.com/maps?q=39.361744,-104.595549","repair, mechanic",,OSM,way/701411872,39.3617439,-104.5955486
5-star-truck-and-trailer-repair-co,5 Star Truck and Trailer Repair,Repair Shops (XJ/Jeep-Friendly),Fort Morgan,CO,"1951, East Riverview Avenue, Fort Morgan, CO, 80701",+1-970-743-3310,https://www.5starttr.com/,"https://www.google.com/maps?q=40.261852,-103.777552","repair, mechanic",Trail builds,OSM,node/8223560065,40.2618523,-103.777552
8th-avenue-conoco-co,8th Avenue Conoco,Repair Shops (XJ/Jeep-Friendly),,CO,"4242, East 8th Avenue, CO, 80220",+1-303-322-0148,,"https://www.google.com/maps?q=39.728933,-104.937553","repair, mechanic",,OSM,node/2892650231,39.7289334,-104.937553
a-b-import-auto-co,A & B Import Auto,Repair Shops (XJ/Jeep-Friendly),Fort Collins,CO,"1943, East Lincoln Avenue, Fort Collins, CO, 80524",+1-970-221-4700,https://abimportauto.com/,"https://www.google.com/maps?q=40.581737,-105.041212","repair, mechanic",,OSM,node/4568215625,40.581737,-105.0412119
a-duck-mobile-mechanics-co,A Duck Mobile Mechanics,Repair Shops (XJ/Jeep-Friendly),Grand Junction,CO,"2260, North Avenue, Grand Junction, CO, 81501",+1-970-234-5169,,"https://www.google.com/maps?q=39.077719,-108.538722","repair, mechanic",,OSM,way/248701580,39.0777188,-108.5387217
a-a-transmission-clinic-co,A&A Transmission Clinic,Repair Shops (XJ/Jeep-Friendly),,CO,CO,,https://aatransclinic.com/,"https://www.google.com/maps?q=39.636037,-104.987363","repair, mechanic",,OSM,node/9796069184,39.6360369,-104.9873628
a-one-autopaintwerks-co,A-One AutoPaintWerks,Repair Shops (XJ/Jeep-Friendly),Englewood,CO,"2331, W Hampden Ave, Englewood, CO, 80110",+1 303-710-1129,,"https://www.google.com/maps?q=39.656774,-105.013243","repair, mechanic",,OSM,node/12115681353,39.6567745,-105.0132432
a-s-a-p-automotive-co,A.S.A.P. Automotive,Repair Shops (XJ/Jeep-Friendly),Grand Junction,CO,"803, Ute Avenue, Grand Junction, CO, 81501",+1-970-210-0723,https://asapautorepairgj.com/,"https://www.google.com/maps?q=39.064954,-108.559050","repair, mechanic",,OSM,way/497196271,39.0649542,-108.55905
aamco-co,Aamco,Repair Shops (XJ/Jeep-Friendly),,CO,"8808, West Colfax Avenue, CO",+1-303-234-1263,,"https://www.google.com/maps?q=39.739845,-105.096263","repair, mechanic",,OSM,node/10167371876,39.7398451,-105.096263
aamco-transmission-repair-co,AAMCO Transmission Repair,Repair Shops (XJ/Jeep-Friendly),Fort Collins,CO,"3737, South Mason Street, Fort Collins, CO, 80525",+1-970-226-4477,https://www.aamcocolorado.com/,"https://www.google.com/maps?q=40.536037,-105.079888","repair, mechanic",,OSM,way/448901272,40.5360375,-105.0798877
aamco-transmissions-total-car-care-co,AAMCO Transmissions & Total Car Care,Repair Shops (XJ/Jeep-Friendly),Loveland,CO,"1119, East Eisenhower Boulevard, Loveland, CO, 80537",+1-970-667-3006,https://www.aamcocolorado.com/locations/loveland/,"https://www.google.com/maps?q=40.407743,-105.060339","repair, mechanic",,OSM,way/474086196,40.4077433,-105.0603392
abra-auto-body-glass-co,Abra Auto Body & Glass,Repair Shops (XJ/Jeep-Friendly),,CO,"1690, South Abilene Street, CO, 80012",+1-303-337-1335,https://abraauto.com/,"https://www.google.com/maps?q=39.686400,-104.827096","repair, mechanic",,OSM,node/2925527479,39.6864001,-104.8270963
abra-auto-body-repair-co,Abra Auto Body Repair,Repair Shops (XJ/Jeep-Friendly),Wheat Ridge,CO,"10501, West 48th Avenue, Wheat Ridge, CO",+1-303-424-9514,https://abraauto.com/,"https://www.google.com/maps?q=39.784927,-105.115893","repair, mechanic",,OSM,way/689176664,39.7849274,-105.1158926
ac-transmission-co,AC Transmission,Repair Shops (XJ/Jeep-Friendly),Denver,CO,"6780, Federal Boulevard, Denver, CO, 80221",+1-303-428-6566,https://www.actransmission.com/,"https://www.google.com/maps?q=39.818438,-105.024474","repair, mechanic",,OSM,way/387155823,39.8184376,-105.0244738
accurate-automotive-co,Accurate Automotive,Repair Shops (XJ/Jeep-Friendly),,CO,CO,+1-970-221-1415,https://www.accurateautonoco.com/,"https://www.google.com/maps?q=40.590373,-105.046864","repair, mechanic",,OSM,node/9648951901,40.5903727,-105.0468643
adam-son-automotive-repair-co,Adam & Son Automotive Repair,Repair Shops (XJ/Jeep-Friendly),Colorado Springs,CO,"2773, Briargate Boulevard, Colorado Springs, CO, 80920",+1-719-528-1846,https://adamandson.com,"https://www.google.com/maps?q=38.941246,-104.776162","repair, mechanic",,OSM,node/7771039033,38.9412462,-104.7761625
adams-automotive-co,Adams Automotive,Repair Shops (XJ/Jeep-Friendly),Castle Rock,CO,"3155, Commerce Court, Castle Rock, CO, 80109",+1-303-663-1385,https://www.adamsautomotiveinc.com/,"https://www.google.com/maps?q=39.408119,-104.870102","repair, mechanic",,OSM,node/12245813429,39.4081189,-104.8701019
admiral-auto-service-co,Admiral Auto Service,Repair Shops (XJ/Jeep-Friendly),Loveland,CO,"1416, East Eisenhower Boulevard, Loveland, CO, 80537",,https://admiralautoservice.com/,"https://www.google.com/maps?q=40.406885,-105.056803","repair, mechanic",,OSM,way/466544978,40.406885,-105.0568026
advance-transmission-co,Advance Transmission,Repair Shops (XJ/Jeep-Friendly),Grand Junction,CO,"463, 28 1/2 Road, Grand Junction, CO, 81501",+1-970-361-5894,,"https://www.google.com/maps?q=39.072025,-108.524730","repair, mechanic",,OSM,node/6300266186,39.0720249,-108.52473
advanced-transmission-center-co,Advanced Transmission Center,Repair Shops (XJ/Jeep-Friendly),Wheat Ridge,CO,"7650, West 44th Avenue, Wheat Ridge, CO, 80033",+1-303-502-9565,https://advancedtransmission.com/,"https://www.google.com/maps?q=39.776261,-105.082370","repair, mechanic",,OSM,node/4963684291,39.7762615,-105.0823696
advanced-vehicle-technology-co,Advanced Vehicle Technology,Repair Shops (XJ/Jeep-Friendly),Fort Collins,CO,"4612, South Mason Street, Fort Collins, CO, 80525",+1-970-797-4750,,"https://www.google.com/maps?q=40.522770,-105.078271","repair, mechanic",,OSM,way/260699943,40.5227704,-105.0782712
advantage-automotive-co,Advantage Automotive,Repair Shops (XJ/Jeep-Friendly),,CO,CO,,https://www.autorepairloveland.com/,"https://www.google.com/maps?q=40.419787,-105.072395","repair, mechanic",,OSM,node/7365445979,40.4197865,-105.0723946
affordable-body-paint-co,Affordable Body & Paint,Repair Shops (XJ/Jeep-Friendly),Grand Junction,CO,"124, North 22nd Court, Grand Junction, CO, 81501",+1-970-201-5338,,"https://www.google.com/maps?q=39.068496,-108.539344","repair, mechanic",,OSM,node/12887457647,39.068496,-108.539344
airport-automotive-co,Airport Automotive,Repair Shops (XJ/Jeep-Friendly),Colorado Springs,CO,"6305, East Platte Avenue, Colorado Springs, CO, 80915",+1-719-570-7212,https://www.airportautomotive.com/,"https://www.google.com/maps?q=38.837912,-104.710489","repair, mechanic",,OSM,node/5096962458,38.8379118,-104.710489
alba-s-auto-truck-repair-co,Alba's Auto & Truck Repair,Repair Shops (XJ/Jeep-Friendly),Lakewood,CO,"105, Harlan Street, Lakewood, CO, 80226",+1-303-922-7960,https://sites.google.com/site/albasautorepair/,"https://www.google.com/maps?q=39.718766,-105.063094","repair, mechanic",,OSM,node/3409977669,39.7187662,-105.063094
alex-auto-repair-co,Alex Auto Repair,Repair Shops (XJ/Jeep-Friendly),Aurora,CO,"3596, Moline Street, Aurora, CO, 80010",+1-720-859-2626,,"https://www.google.com/maps?q=39.767131,-104.854271","repair, mechanic",,OSM,node/2918099844,39.7671312,-104.854271
all-around-automotive-co,All Around Automotive,Repair Shops (XJ/Jeep-Friendly),Colorado Springs,CO,"2536, Weston Road, Colorado Springs, CO, 80910",+1-719-597-4146,,"https://www.google.com/maps?q=38.796089,-104.779408","repair, mechanic",,OSM,way/191650786,38.7960891,-104.7794081
all-auto-repair-co,All Auto Repair,Repair Shops (XJ/Jeep-Friendly),,CO,CO,+1-970-527-4000,,"https://www.google.com/maps?q=38.860112,-107.592692","repair, mechanic",,OSM,node/8840484469,38.8601125,-107.5926922
all-nations-autos-co,All Nations Autos,Repair Shops (XJ/Jeep-Friendly),Lakewood,CO,"1395, Sheridan Boulevard, Lakewood, CO, 80214",+1-303-232-3477,,"https://www.google.com/maps?q=39.738212,-105.053533","repair, mechanic",,OSM,way/1108270402,39.7382119,-105.053533
all-rv-service-center-co,All RV Service Center,Repair Shops (XJ/Jeep-Friendly),Colorado Springs,CO,"2150, Victor Place, Colorado Springs, CO, 80915",+1-719-578-9903,http://www.allrvservicecenter.net/,"https://www.google.com/maps?q=38.863416,-104.723045","repair, mechanic",,OSM,way/194227436,38.8634156,-104.7230449
alonzo-s-auto-detailing-co,Alonzo's Auto Detailing,Repair Shops (XJ/Jeep-Friendly),Grand Junction,CO,"1801, Main Street, Grand Junction, CO, 81501",+1-970-216-5084,https://www.alonzodetailing.com/,"https://www.google.com/maps?q=39.066989,-108.543892","repair, mechanic",,OSM,way/428082494,39.0669892,-108.543892
alpine-autohaus-ltd-co,Alpine Autohaus Ltd,Repair Shops (XJ/Jeep-Friendly),Grand Junction,CO,"543, Bogart Lane, Grand Junction, CO, 81505",+1-970-248-8004,,"https://www.google.com/maps?q=39.083547,-108.584586","repair, mechanic",,OSM,way/497200728,39.0835467,-108.5845864
alpine-automotive-co,Alpine Automotive,Repair Shops (XJ/Jeep-Friendly),Estes Park,CO,"508, Pine River Court, Estes Park, CO, 80517",+1-970-586-2316,https://www.alpineautomotiverepair.com/,"https://www.google.com/maps?q=40.370301,-105.526956","repair, mechanic",,OSM,way/322069608,40.3703013,-105.5269557
alpine-tire-service-co,Alpine Tire & Service,Repair Shops (XJ/Jeep-Friendly),Fort Collins,CO,"1817, Heath Parkway, Fort Collins, CO, 80524",+1-970-221-3555,,"https://www.google.com/maps?q=40.584569,-105.043678","repair, mechanic",,OSM,way/183384901,40.5845687,-105.0436784
america-s-auto-tire-co,America's Auto & Tire,Repair Shops (XJ/Jeep-Friendly),Grand Junction,CO,"1154, North 4th Street, Grand Junction, CO, 81501",+1-970-212-2659,https://americasautocare.com/locations/grand-junction/,"https://www.google.com/maps?q=39.077919,-108.565778","repair, mechanic",,OSM,way/423684221,39.0779186,-108.5657785
andersen-s-foreign-car-service-co,Andersen's Foreign Car Service,Repair Shops (XJ/Jeep-Friendly),Golden,CO,"16289, West Colfax Avenue, Golden, CO, 80401",+1 303-278-8766,https://www.andersens.net/,"https://www.google.com/maps?q=39.728057,-105.182748","repair, mechanic",,OSM,way/374169429,39.7280569,-105.1827476
angel-s-muffler-shop-llc-co,Angel's Muffler Shop LLC,Repair Shops (XJ/Jeep-Friendly),Denver,CO,"2400, East 46th South Avenue, Denver, CO, 80216",+1-303-501-3283,,"https://www.google.com/maps?q=39.779764,-104.957837","repair, mechanic",,OSM,way/966312958,39.7797643,-104.9578372
antonelli-s-advanced-automotive-co,Antonelli's Advanced Automotive,Repair Shops (XJ/Jeep-Friendly),Grand Junction,CO,"365, Bonny Street, Grand Junction, CO, 81501",+1 970 242 0580,https://www.antonellisadvancedauto.com/,"https://www.google.com/maps?q=39.058382,-108.544683","repair, mechanic",,OSM,way/288696785,39.0583817,-108.5446828
apex-diesel-transmission-co,Apex Diesel & Transmission,Repair Shops (XJ/Jeep-Friendly),Grand Junction,CO,"1405, Motor Street, Grand Junction, CO, 81505",+1-970-433-7105,,"https://www.google.com/maps?q=39.080112,-108.577283","repair, mechanic",,OSM,way/497200090,39.0801122,-108.5772829
applewood-automotive-co,Applewood Automotive,Repair Shops (XJ/Jeep-Friendly),Lakewood,CO,"595, Garrison Street, Lakewood, CO, 80226",+1-303-233-1585,http://applewoodautomotive.com/,"https://www.google.com/maps?q=39.724725,-105.100659","repair, mechanic",,OSM,node/4794555415,39.7247246,-105.100659
ar-truck-and-auto-repair-shop-co,AR Truck and Auto Repair Shop,Repair Shops (XJ/Jeep-Friendly),Nunn,CO,"182, United States Highway 85, Nunn, CO, 80648",+1-970-897-2482,https://artruckandautorepair.com/,"https://www.google.com/maps?q=40.706621,-104.781220","repair, mechanic",,OSM,node/10605476785,40.7066214,-104.7812199
aspen-auto-clinic-co,Aspen Auto Clinic,Repair Shops (XJ/Jeep-Friendly),Colorado Springs,CO,"1755, Jet Stream Drive, Colorado Springs, CO, 80921",+1-719-203-2898,https://aspenautoclinic.com/jet-stream,"https://www.google.com/maps?q=38.997609,-104.794039","repair, mechanic",,OSM,way/196064696,38.9976094,-104.7940393
aspen-park-tire-and-auto-co,Aspen Park Tire and Auto,Repair Shops (XJ/Jeep-Friendly),Aspen Park,CO,"26131, Main Street, Aspen Park, CO, 80433",+1-303-838-4757,https://www.apaxcare.com/index.html,"https://www.google.com/maps?q=39.539288,-105.298676","repair, mechanic",,OSM,way/149966756,39.5392882,-105.2986758
asr-automotive-service-and-repair-co,ASR Automotive Service and Repair,Repair Shops (XJ/Jeep-Friendly),Fort Collins,CO,"309, South Link Lane, Fort Collins, CO, 80524",+1-970-294-7768,https://www.autoservicefortcollins.com/,"https://www.google.com/maps?q=40.584278,-105.050675","repair, mechanic",,OSM,way/183384958,40.584278,-105.050675
astro-automotive-co,Astro Automotive,Repair Shops (XJ/Jeep-Friendly),Denver,CO,"65, South Cherokee Street, Denver, CO, 80223",+1-303-722-2808,https://www.astroautomotive.com/,"https://www.google.com/maps?q=39.715240,-104.992548","repair, mechanic",,OSM,way/714373223,39.7152398,-104.992548
attitude-upholstery-co,Attitude Upholstery,Repair Shops (XJ/Jeep-Friendly),Grand Junction,CO,"488, Melody Lane, Grand Junction, CO, 81501",+1-970-210-5112,,"https://www.google.com/maps?q=39.075727,-108.517027","repair, mechanic",,OSM,way/497022382,39.0757275,-108.5170272
aurora-collision-center-co,Aurora Collision Center,Repair Shops (XJ/Jeep-Friendly),,CO,CO,+1-303-340-4100,https://auroracollisioncenter.com/,"https://www.google.com/maps?q=39.722244,-104.801476","repair, mechanic",,OSM,node/11891307061,39.7222436,-104.8014761
aurora-hills-tire-automotive-co,Aurora Hills Tire & Automotive,Repair Shops (XJ/Jeep-Friendly),,CO,"350, South Potomac Street, CO, 80012",+1-303-366-7468,http://ahaautomotive.com,"https://www.google.com/maps?q=39.710117,-104.827872","repair, mechanic",,OSM,node/2903634715,39.710117,-104.827872
auto-collision-experts-co,Auto Collision Experts,Repair Shops (XJ/Jeep-Friendly),Fort Collins,CO,"1617, East Mulberry Street, Fort Collins, CO, 80524",+1-970-482-1198,http://autocollisionexperts.com/,"https://www.google.com/maps?q=40.580383,-105.047783","repair, mechanic",,OSM,way/236668059,40.5803827,-105.0477832
auto-service-house-co,Auto Service House,Repair Shops (XJ/Jeep-Friendly),Denver,CO,"2240, South Quebec Street, Denver, CO, 80231",+1-303-755-6217,https://www.autoservicehouse.com/,"https://www.google.com/maps?q=39.675662,-104.903224","repair, mechanic",,OSM,node/3451485014,39.6756622,-104.903224
auto-show-offz-co,Auto Show Offz,Repair Shops (XJ/Jeep-Friendly),Grand Junction,CO,"496, Harris Road, Grand Junction, CO, 81501",+1-970-255-6618,https://autoshowoffz.com/,"https://www.google.com/maps?q=39.076678,-108.520693","repair, mechanic",,OSM,way/497022362,39.0766778,-108.5206931
auto-trends-co,Auto Trends,Repair Shops (XJ/Jeep-Friendly),Fort Collins,CO,"1235, North College Avenue, Fort Collins, CO, 80524-1231",+1-970-224-2824,http://www.autotrendservice.com,"https://www.google.com/maps?q=40.604137,-105.077158","repair, mechanic",,OSM,way/172542550,40.6041366,-105.0771582
auto-trim-specialists-co,Auto Trim Specialists,Repair Shops (XJ/Jeep-Friendly),Denver,CO,"4771, East Evans Avenue, Denver, CO, 80222",+1-303-757-7463,https://www.autotrimspecialist.com/,"https://www.google.com/maps?q=39.678731,-104.931854","repair, mechanic",,OSM,relation/18403100,39.6787307,-104.9318538
autohaus-co,Autohaus,Repair Shops (XJ/Jeep-Friendly),Boulder,CO,"4840, Sterling Drive, Boulder, CO, 80301",+1 303-468-1166,https://autohausboulder.com/,"https://www.google.com/maps?q=40.026339,-105.241100","repair, mechanic",,OSM,way/172572221,40.0263389,-105.2411004
autovisions-co,Autovisions,Repair Shops (XJ/Jeep-Friendly),,CO,"3701, South Santa Fe Drive, CO, 80110",+1-303-761-5100,http://www.autovisionsco.net/,"https://www.google.com/maps?q=39.649267,-105.003982","repair, mechanic",,OSM,node/1344835912,39.6492665,-105.0039824
axis-motorwerks-co,Axis MotorWerks,Repair Shops (XJ/Jeep-Friendly),Grand Junction,CO,"1105, North 1st Street, Grand Junction, CO, 81501",+1-970-433-7111,https://www.axismotorwerks.com/,"https://www.google.com/maps?q=39.077862,-108.571234","repair, mechanic",,OSM,way/423684214,39.0778621,-108.5712341
b-e-auto-body-co,B & E Auto Body,Repair Shops (XJ/Jeep-Friendly),Brighton,CO,"14900, Brighton Road, Brighton, CO, 80601",+1-303-659-4788,,"https://www.google.com/maps?q=39.967898,-104.828750","repair, mechanic",,OSM,way/955460322,39.9678985,-104.8287505
b-w-body-shop-co,B & W Body Shop,Repair Shops (XJ/Jeep-Friendly),Alamosa,CO,"310, Sunny Side Lane, Alamosa, CO, 81101",+1-719-589-9288,https://www.bandwbodyshop.net/,"https://www.google.com/maps?q=37.481392,-105.851617","repair, mechanic",,OSM,node/4605488172,37.4813917,-105.8516174
baker-s-transmission-drive-line-service-co,Baker's Transmission / Drive Line Service,Repair Shops (XJ/Jeep-Friendly),Grand Junction,CO,"540, Hoover Drive, Grand Junction, CO, 81504",+1-970-245-6640,https://bakerstransmission.com/,"https://www.google.com/maps?q=39.082092,-108.480237","repair, mechanic",,OSM,way/497002711,39.0820917,-108.480237
baldwin-s-service-center-co,Baldwin's Service Center,Repair Shops (XJ/Jeep-Friendly),Aurora,CO,"3293, Oakland Street, Aurora, CO, 80010",+1-303-371-7176,http://baldwinsservicecenter.com/,"https://www.google.com/maps?q=39.763580,-104.851048","repair, mechanic",,OSM,way/288251185,39.7635796,-104.8510475
banister-automotive-co,Banister Automotive,Repair Shops (XJ/Jeep-Friendly),Grand Junction,CO,"2460, I 70 Business Loop, Grand Junction, CO, 81501",+1-970-683-8271,,"https://www.google.com/maps?q=39.069514,-108.535795","repair, mechanic",,OSM,way/497023637,39.0695143,-108.5357949
bear-automotive-co,Bear Automotive,Repair Shops (XJ/Jeep-Friendly),Grand Junction,CO,"1315, Pitkin Avenue, Grand Junction, CO, 81501",+1-970-245-2585,https://www.napaonline.com/en/autocare/?facilityId=1017573,"https://www.google.com/maps?q=39.064136,-108.550455","repair, mechanic",,OSM,way/497199384,39.0641359,-108.5504553
bear-creek-towing-llc-co,Bear Creek Towing LLC,Repair Shops (XJ/Jeep-Friendly),Evergreen,CO,"1232, Bergen Parkway, Evergreen, CO, 80439",+1-303-588-6025,https://bearcreektowingllc.com/,"https://www.google.com/maps?q=39.692259,-105.356878","repair, mechanic",,OSM,node/9681296744,39.6922591,-105.356878
bell-automotive-llc-co,Bell Automotive LLC,Repair Shops (XJ/Jeep-Friendly),Thornton,CO,"16250, Washington Street, Thornton, CO, 80023",+1-720-725-6753,https://bellautorepair.business.site/,"https://www.google.com/maps?q=39.990807,-104.977501","repair, mechanic",,OSM,node/8185385745,39.9908074,-104.977501
bender-menders-co,Bender Menders,Repair Shops (XJ/Jeep-Friendly),Elizabeth,CO,"763, Crossroads Circle, Elizabeth, CO, 80107",+1-303-646-3378,https://bendermenders.com/,"https://www.google.com/maps?q=39.363645,-104.591627","repair, mechanic",,OSM,way/701411874,39.363645,-104.591627
berg-performance-co,Berg Performance,Repair Shops (XJ/Jeep-Friendly),Denver,CO,"6381, Beach Street, Denver, CO, 80221",,https://www.bergperformance.com/,"https://www.google.com/maps?q=39.812477,-105.018697","repair, mechanic",,OSM,node/12828810102,39.8124768,-105.0186971
berkley-s-automotive-co,Berkley's Automotive,Repair Shops (XJ/Jeep-Friendly),Grand Junction,CO,"436, South 5th Street, Grand Junction, CO, 81501",+1-970-244-8484,,"https://www.google.com/maps?q=39.063699,-108.564118","repair, mechanic",,OSM,way/497199741,39.0636992,-108.5641182
berry-s-garage-co,Berry's Garage,Repair Shops (XJ/Jeep-Friendly),Grand Junction,CO,"508, Melody Lane, Grand Junction, CO, 81501",+1-970-243-4298,https://berrysgarage.com/,"https://www.google.com/maps?q=39.078187,-108.517257","repair, mechanic",,OSM,way/497021916,39.078187,-108.5172573
best-western-transmission-co,Best Western Transmission,Repair Shops (XJ/Jeep-Friendly),Fort Collins,CO,"1810, South College Avenue, Fort Collins, CO, 80525",+1-970-484-6255,,"https://www.google.com/maps?q=40.563032,-105.076456","repair, mechanic",,OSM,way/218014247,40.5630315,-105.0764558
bestires-co,BesTires,Repair Shops (XJ/Jeep-Friendly),Lakewood,CO,"Sheridan Boulevard, Lakewood, CO, 80226",+1-303-237-1386,,"https://www.google.com/maps?q=39.722855,-105.053661","repair, mechanic",,OSM,node/3415286909,39.7228553,-105.053661
bg-automotive-co-2,BG Automotive,Repair Shops (XJ/Jeep-Friendly),Loveland,CO,"3216, North Garfield Avenue, Loveland, CO, 80538",+1-970-699-4545,https://www.bgautomotiveinc.com/garfield,"https://www.google.com/maps?q=40.425780,-105.077098","repair, mechanic",,OSM,way/452749961,40.4257799,-105.0770979
bg-automotive-co,BG Automotive,Repair Shops (XJ/Jeep-Friendly),,CO,CO,,https://www.bgautomotiveinc.com/riverside,"https://www.google.com/maps?q=40.587082,-105.071048","repair, mechanic",,OSM,node/9826431266,40.5870819,-105.0710479
blue-ribbon-auto-body-co,Blue Ribbon Auto Body,Repair Shops (XJ/Jeep-Friendly),Loveland,CO,"401, South Lincoln Avenue, Loveland, CO",+1-970-663-6378,https://blueribbonautocenter.com,"https://www.google.com/maps?q=40.388520,-105.073981","repair, mechanic",,OSM,way/473467234,40.3885198,-105.0739811
blue-ribbon-towing-co,Blue Ribbon Towing,Repair Shops (XJ/Jeep-Friendly),,CO,CO,+1-970-663-5530,https://www.triadblueribbon.com/,"https://www.google.com/maps?q=40.380342,-105.077414","repair, mechanic",,OSM,node/9458967474,40.3803418,-105.0774135
bo-dean-s-towing-co,Bo Dean's Towing,Repair Shops (XJ/Jeep-Friendly),Durango,CO,"20909, US-160, Durango, CO, 81301",+1-970-375-6221,https://bodeanstowing.com/,"https://www.google.com/maps?q=37.271417,-107.903596","repair, mechanic",,OSM,node/4580871014,37.2714172,-107.9035961
bob-s-service-co,Bob's Service,Repair Shops (XJ/Jeep-Friendly),Denver,CO,"7453, East Colfax Avenue, Denver, CO, 80220",+1-303-320-9640,https://www.bobsvolvo.com/,"https://www.google.com/maps?q=39.740478,-104.901425","repair, mechanic",,OSM,node/2794063566,39.7404782,-104.901425
boulder-bump-shop-co,Boulder Bump Shop,Repair Shops (XJ/Jeep-Friendly),,CO,CO,,http://www.boulderbumpshop.com/,"https://www.google.com/maps?q=40.022974,-105.238059","repair, mechanic",,OSM,node/10731789602,40.0229736,-105.2380586
boulder-custom-muffler-co,Boulder Custom Muffler,Repair Shops (XJ/Jeep-Friendly),,CO,CO,+1-303-245-7058,,"https://www.google.com/maps?q=40.013809,-105.207618","repair, mechanic",,OSM,node/2106545420,40.0138094,-105.207618
boulder-hybrids-co,Boulder Hybrids,Repair Shops (XJ/Jeep-Friendly),Boulder,CO,"2907, 55th Street, Boulder, CO, 80301",+1-303-325-7411,https://boulderhc.com/,"https://www.google.com/maps?q=40.027678,-105.226992","repair, mechanic",,OSM,node/6518674987,40.0276776,-105.2269917
bragg-automotive-towing-co,Bragg Automotive & Towing,Repair Shops (XJ/Jeep-Friendly),,CO,"1210, Argentine Street, CO, 80444",+1-303-569-2451,,"https://www.google.com/maps?q=39.712901,-105.695205","repair, mechanic",,OSM,node/3009638721,39.712901,-105.695205
brakes-plus-co-18,Brakes Plus,Repair Shops (XJ/Jeep-Friendly),Littleton,CO,"5800, South Kipling Parkway, Littleton, CO, 80127",+1-303-972-9400,https://www.brakesplus.com,"https://www.google.com/maps?q=39.611582,-105.109326","repair, mechanic",,OSM,node/618498575,39.611582,-105.109326
brakes-plus-co-2,Brakes Plus,Repair Shops (XJ/Jeep-Friendly),Centennial,CO,"5594, South Gibraltar Way, Centennial, CO, 80015",+1-303-627-0800,https://www.brakesplus.com,"https://www.google.com/maps?q=39.615031,-104.755945","repair, mechanic",,OSM,node/3808266586,39.615031,-104.7559451
brakes-plus-co-3,Brakes Plus,Repair Shops (XJ/Jeep-Friendly),Loveland,CO,"3200, North Garfield Avenue, Loveland, CO, 80538",+1-970-667-3100,https://www.brakesplus.com,"https://www.google.com/maps?q=40.425078,-105.076987","repair, mechanic",,OSM,node/4788712389,40.4250779,-105.0769869
brakes-plus-co-4,Brakes Plus,Repair Shops (XJ/Jeep-Friendly),Colorado Springs,CO,"3784, East Pikes Peak Avenue, Colorado Springs, CO, 80909",+1-719-596-0500,https://www.brakesplus.com,"https://www.google.com/maps?q=38.832496,-104.757948","repair, mechanic",,OSM,node/5099458302,38.8324964,-104.757948
brakes-plus-co-5,Brakes Plus,Repair Shops (XJ/Jeep-Friendly),Aurora,CO,"10593, East Mississippi Avenue, Aurora, CO, 80012",+1-303-341-4836,https://www.brakesplus.com,"https://www.google.com/maps?q=39.696906,-104.865062","repair, mechanic",,OSM,node/5649897905,39.696906,-104.865062
brakes-plus-co-6,Brakes Plus,Repair Shops (XJ/Jeep-Friendly),Brighton,CO,"1072, Prairie Center Parkway, Brighton, CO, 80601",+1-303-219-9819,https://www.brakesplus.com,"https://www.google.com/maps?q=39.971248,-104.770371","repair, mechanic",,OSM,node/5649897906,39.971248,-104.770371
brakes-plus-co-7,Brakes Plus,Repair Shops (XJ/Jeep-Friendly),Denver,CO,"3525, Quebec Street, Denver, CO, 80207",+1-303-377-2889,https://www.brakesplus.com,"https://www.google.com/maps?q=39.765855,-104.904370","repair, mechanic",,OSM,node/5649897910,39.765855,-104.90437
brakes-plus-co-8,Brakes Plus,Repair Shops (XJ/Jeep-Friendly),Glendale,CO,"4750, Leetsdale Drive, Glendale, CO, 80246",+1-303-333-5511,https://www.brakesplus.com,"https://www.google.com/maps?q=39.708312,-104.931459","repair, mechanic",,OSM,node/5649897914,39.708312,-104.931459
brakes-plus-co-9,Brakes Plus,Repair Shops (XJ/Jeep-Friendly),Highlands Ranch,CO,"7040, East County Line Road, Highlands Ranch, CO, 80126",+1-303-221-6700,https://www.brakesplus.com,"https://www.google.com/maps?q=39.565586,-104.907739","repair, mechanic",,OSM,node/5649897916,39.5655863,-104.9077392
brakes-plus-co-10,Brakes Plus,Repair Shops (XJ/Jeep-Friendly),Pueblo,CO,"900, US 50, Pueblo, CO, 81008",+1-719-543-3200,https://www.brakesplus.com,"https://www.google.com/maps?q=38.306984,-104.619151","repair, mechanic",,OSM,node/5649897918,38.3069843,-104.6191508
brakes-plus-co-11,Brakes Plus,Repair Shops (XJ/Jeep-Friendly),Greeley,CO,"2707, 23rd Avenue, Greeley, CO, 80634",+1-970-330-2100,https://www.brakesplus.com,"https://www.google.com/maps?q=40.393096,-104.716417","repair, mechanic",,OSM,node/5649898522,40.3930955,-104.7164172
brakes-plus-co-12,Brakes Plus,Repair Shops (XJ/Jeep-Friendly),Longmont,CO,"1050, Ken Pratt Boulevard, Longmont, CO, 80501",+1-303-682-5800,https://www.brakesplus.com,"https://www.google.com/maps?q=40.152993,-105.110411","repair, mechanic",,OSM,node/5649898523,40.152993,-105.110411
brakes-plus-co-13,Brakes Plus,Repair Shops (XJ/Jeep-Friendly),Fort Collins,CO,"3801, Mitchell Drive, Fort Collins, CO, 80525",+1-970-204-6800,https://www.brakesplus.com,"https://www.google.com/maps?q=40.535283,-105.076369","repair, mechanic",,OSM,node/5649898524,40.535283,-105.076369
brakes-plus-co-14,Brakes Plus,Repair Shops (XJ/Jeep-Friendly),Lakewood,CO,"10600, West Colfax Avenue, Lakewood, CO, 80215",+1-303-237-2200,https://www.brakesplus.com/stores/lakewood/co/0111/,"https://www.google.com/maps?q=39.739647,-105.116948","repair, mechanic",,OSM,node/5649898526,39.7396472,-105.1169479
brakes-plus-co-15,Brakes Plus,Repair Shops (XJ/Jeep-Friendly),Arvada,CO,"5465, Wadsworth Bypass, Arvada, CO, 80002",+1-303-467-2500,https://www.brakesplus.com,"https://www.google.com/maps?q=39.795851,-105.078720","repair, mechanic",,OSM,node/5649898528,39.795851,-105.07872
brakes-plus-co-16,Brakes Plus,Repair Shops (XJ/Jeep-Friendly),Englewood,CO,"6620, South Dayton Street, Englewood, CO, 80111",+1-303-649-9100,https://www.brakesplus.com,"https://www.google.com/maps?q=39.596563,-104.875700","repair, mechanic",,OSM,node/5649898532,39.596563,-104.8757
brakes-plus-co-17,Brakes Plus,Repair Shops (XJ/Jeep-Friendly),Firestone,CO,"4555, City Centre Road, Firestone, CO, 80504",+1-720-892-5960,https://www.brakesplus.com,"https://www.google.com/maps?q=40.160100,-104.969137","repair, mechanic",,OSM,node/5948949603,40.1601004,-104.9691373
brakes-plus-co,Brakes Plus,Repair Shops (XJ/Jeep-Friendly),Elizabeth,CO,"1962, Legacy Circle, Elizabeth, CO, 80107",+1-720-994-2711,https://www.brakesplus.com/stores/elizabeth/co/0149/,"https://www.google.com/maps?q=39.361043,-104.627320","repair, mechanic",,OSM,node/12416687705,39.3610433,-104.62732
brakes-plus-co-23,Brakes Plus,Repair Shops (XJ/Jeep-Friendly),Thornton,CO,"405, East 120th Avenue, Thornton, CO, 80233",+1-303-255-9600,https://www.brakesplus.com,"https://www.google.com/maps?q=39.914543,-104.983165","repair, mechanic",,OSM,way/53144059,39.9145426,-104.9831655
brakes-plus-co-25,Brakes Plus,Repair Shops (XJ/Jeep-Friendly),Superior,CO,"90, McCaslin Boulevard, Superior, CO, 80027",+1-720-304-3343,https://www.brakesplus.com,"https://www.google.com/maps?q=39.956333,-105.165111","repair, mechanic",,OSM,way/61951720,39.956333,-105.1651111
brakes-plus-co-20,Brakes Plus,Repair Shops (XJ/Jeep-Friendly),Westminster,CO,"7401, West 92nd Avenue, Westminster, CO, 80021",+1-303-456-9500,https://www.brakesplus.com,"https://www.google.com/maps?q=39.864757,-105.081213","repair, mechanic",,OSM,way/158271307,39.864757,-105.081213
brakes-plus-co-21,Brakes Plus,Repair Shops (XJ/Jeep-Friendly),Parker,CO,"16542, Keystone Boulevard, Parker, CO, 80134",+1-303-841-9200,https://www.brakesplus.com,"https://www.google.com/maps?q=39.532779,-104.796247","repair, mechanic",,OSM,way/205951723,39.5327791,-104.7962471
brakes-plus-co-22,Brakes Plus,Repair Shops (XJ/Jeep-Friendly),Grand Junction,CO,"519, Ligrani Lane, Grand Junction, CO, 81505",+1-970-241-9600,https://www.brakesplus.com/stores/grand-junction/co/0136/,"https://www.google.com/maps?q=39.078781,-108.582049","repair, mechanic",,OSM,way/497201020,39.0787807,-108.5820488
brakes-plus-co-24,Brakes Plus,Repair Shops (XJ/Jeep-Friendly),Castle Rock,CO,"4455, Barranca Lane, Castle Rock, CO, 80104",+1-720-258-8423,https://www.brakesplus.com,"https://www.google.com/maps?q=39.406326,-104.857336","repair, mechanic",,OSM,way/598908602,39.4063257,-104.8573358
brakes-plus-co-26,Brakes Plus,Repair Shops (XJ/Jeep-Friendly),Monument,CO,"15733, Jackson Creek Parkway, Monument, CO, 80132",+1-719-204-4798,https://www.brakesplus.com,"https://www.google.com/maps?q=39.063076,-104.847430","repair, mechanic",,OSM,way/768853507,39.0630762,-104.8474295
brakes-plus-co-19,Brakes Plus,Repair Shops (XJ/Jeep-Friendly),Johnstown,CO,"4820, Larimer Parkway, Johnstown, CO, 80534",+1-970-578-9930,,"https://www.google.com/maps?q=40.406627,-104.975290","repair, mechanic",,OSM,node/6522284399,40.4066272,-104.9752895
brighton-auto-body-co,Brighton Auto Body,Repair Shops (XJ/Jeep-Friendly),Brighton,CO,"190, Great Western Road, Brighton, CO, 80601",+1-303-659-4612,https://www.brightonautobody.com/,"https://www.google.com/maps?q=39.989560,-104.821943","repair, mechanic",,OSM,way/955462920,39.98956,-104.821943
brighton-tires-wheels-co,Brighton Tires & Wheels,Repair Shops (XJ/Jeep-Friendly),Brighton,CO,"100, West Southern Street, Brighton, CO, 80601",+1-303-659-5007,https://www.brightontiresandwheels.com/,"https://www.google.com/maps?q=39.979139,-104.824345","repair, mechanic",,OSM,way/266254050,39.979139,-104.8243454
buckskin-towing-repair-co,Buckskin Towing & Repair,Repair Shops (XJ/Jeep-Friendly),Pagosa Springs,CO,"1435, E Hwy 160, Pagosa Springs, CO, 88147",+1-970-264-2500,https://www.buckskintowing.com,"https://www.google.com/maps?q=37.272257,-106.988849","repair, mechanic",,OSM,way/777605473,37.2722572,-106.9888486
budget-glass-co,Budget Glass,Repair Shops (XJ/Jeep-Friendly),,CO,CO,+1 720-890-2954,,"https://www.google.com/maps?q=39.997876,-105.090181","repair, mechanic",,OSM,node/12639795140,39.9978761,-105.0901811
built-to-last-automotive-service-co,Built To Last Automotive Service,Repair Shops (XJ/Jeep-Friendly),Durango,CO,"714, Sawmill Road, Durango, CO, 81301",+1-970-259-8777,https://built2lastautomotive.com/,"https://www.google.com/maps?q=37.245662,-107.868570","repair, mechanic",,OSM,node/6138889743,37.245662,-107.8685703
bullet-automotive-co,Bullet Automotive,Repair Shops (XJ/Jeep-Friendly),Brighton,CO,"607, East Bridge Street, Brighton, CO, 80601",+1-720-998-6936,https://www.bullet-automotive.com/,"https://www.google.com/maps?q=39.987032,-104.815043","repair, mechanic",,OSM,way/821548148,39.9870319,-104.815043
burroughs-service-co-co,Burroughs Service Co,Repair Shops (XJ/Jeep-Friendly),Bennett,CO,"610, Colfax Avenue, Bennett, CO, 80102",+1-303-644-3322,https://burroughsservice.com/,"https://www.google.com/maps?q=39.755577,-104.425963","repair, mechanic",,OSM,way/498980341,39.7555769,-104.4259628
c-t-auto-co,C & T Auto,Repair Shops (XJ/Jeep-Friendly),Strasburg,CO,"56773, East I-70 Frontage Road, Strasburg, CO, 80136",+1-303-622-4100,https://www.strasburgautorepair.com/,"https://www.google.com/maps?q=39.735237,-104.322957","repair, mechanic",,OSM,way/532013450,39.7352367,-104.3229569
c-t-tire-and-automotive-co,C & T Tire and Automotive,Repair Shops (XJ/Jeep-Friendly),Fort Collins,CO,"228, South Link Lane, Fort Collins, CO, 80524",+1-970-224-0700,https://www.candttireautomotive.com/,"https://www.google.com/maps?q=40.584733,-105.049757","repair, mechanic",,OSM,way/183384874,40.5847331,-105.049757
c-a-r-s-co,C.A.R.S.,Repair Shops (XJ/Jeep-Friendly),Grand Junction,CO,"472, 28 1/2 Road, Grand Junction, CO, 81501",+1-970-241-2258,https://www.carslikenew.com/,"https://www.google.com/maps?q=39.073406,-108.523841","repair, mechanic",,OSM,relation/17759537,39.0734063,-108.5238413
caliber-collision-co-2,Caliber Collision,Repair Shops (XJ/Jeep-Friendly),Loveland,CO,"5486, North Garfield Avenue, Loveland, CO, 80538",+1-970-541-1502,https://calibercollision.com/,"https://www.google.com/maps?q=40.449515,-105.076581","repair, mechanic",,OSM,node/6360686277,40.4495148,-105.076581
caliber-collision-co-3,Caliber Collision,Repair Shops (XJ/Jeep-Friendly),Colorado Springs,CO,"5750, East Woodmen Road, Colorado Springs, CO, 80920",+1-719-598-2525,https://www.caliber.com/find-a-location/colorado-springs-north,"https://www.google.com/maps?q=38.944618,-104.721872","repair, mechanic",,OSM,node/6534639071,38.9446178,-104.7218716
caliber-collision-co,Caliber Collision,Repair Shops (XJ/Jeep-Friendly),Peyton,CO,"10706, Maltese Point, Peyton, CO, 80831",+1 719-559-0077,https://www.caliber.com/find-a-location/falcon,"https://www.google.com/maps?q=38.940064,-104.629178","repair, mechanic",,OSM,node/12594302896,38.9400635,-104.6291783
caliber-collision-co-4,Caliber Collision,Repair Shops (XJ/Jeep-Friendly),Broomfield,CO,"2305, West Midway Boulevard, Broomfield, CO, 80020",+1 720-892-0437,https://www.caliber.com/find-a-location/broomfield-w-midway-blvd,"https://www.google.com/maps?q=39.923139,-105.095987","repair, mechanic",,OSM,way/168386613,39.9231389,-105.0959873
caliber-collision-co-5,Caliber Collision,Repair Shops (XJ/Jeep-Friendly),Castle Rock,CO,"2759, Liggett Road, Castle Rock, CO, 80109",+1-303-688-9608,https://www.caliber.com/find-a-location/castle-rock,"https://www.google.com/maps?q=39.401484,-104.869936","repair, mechanic",,OSM,way/324380205,39.4014842,-104.8699362
caliber-collision-co-6,Caliber Collision,Repair Shops (XJ/Jeep-Friendly),Denver,CO,"5101, East Evans Avenue, Denver, CO, 80222",+1-303-762-7562,https://www.caliber.com/find-a-location/denver-east-evans,"https://www.google.com/maps?q=39.679032,-104.926736","repair, mechanic",,OSM,way/344928747,39.679032,-104.9267364
caliber-collision-co-7,Caliber Collision,Repair Shops (XJ/Jeep-Friendly),Fort Collins,CO,"407, Riverside Avenue, Fort Collins, CO, 80524",+1-970-484-3657,https://calibercollision.com/,"https://www.google.com/maps?q=40.583755,-105.067135","repair, mechanic",,OSM,way/464579527,40.5837549,-105.0671348
caliber-collision-co-8,Caliber Collision,Repair Shops (XJ/Jeep-Friendly),Grand Junction,CO,"2926, North Avenue, Grand Junction, CO, 81504",+1-970-628-9544,https://www.caliber.com/find-a-location/grand-junction-east,"https://www.google.com/maps?q=39.077687,-108.510097","repair, mechanic",,OSM,way/497021372,39.0776869,-108.5100972
caliber-collision-co-9,Caliber Collision,Repair Shops (XJ/Jeep-Friendly),Parker,CO,"9035, South Woodman Way, Parker, CO, 80134",+1 303-617-1638,https://www.abraauto.com/,"https://www.google.com/maps?q=39.553811,-104.779193","repair, mechanic",,OSM,way/653811159,39.553811,-104.779193
campus-auto-repair-co,Campus Auto Repair,Repair Shops (XJ/Jeep-Friendly),Fort Collins,CO,"1800, South College Avenue, Fort Collins, CO, 80525",+1-970-484-4040,http://www.campusrepair.com,"https://www.google.com/maps?q=40.563183,-105.076538","repair, mechanic",,OSM,way/218014253,40.5631832,-105.0765378
car-and-truck-services-co,Car and Truck Services,Repair Shops (XJ/Jeep-Friendly),Glenwood Springs,CO,"2450, Glen Avenue, Glenwood Springs, CO, 81601-4336",+1-970-945-6025,https://www.catstowing.com,"https://www.google.com/maps?q=39.527250,-107.322909","repair, mechanic",,OSM,node/13475187942,39.5272503,-107.3229088
car-clinic-co,Car Clinic,Repair Shops (XJ/Jeep-Friendly),Grand Junction,CO,"2458, I 70 Business Loop, Grand Junction, CO, 81501",+1-970-216-3634,,"https://www.google.com/maps?q=39.069500,-108.536242","repair, mechanic",,OSM,node/12887457653,39.0695005,-108.5362423
car-nuts-co,Car Nuts,Repair Shops (XJ/Jeep-Friendly),,CO,CO,+1-303-794-4938,,"https://www.google.com/maps?q=39.599828,-104.988706","repair, mechanic",,OSM,node/9311871114,39.5998284,-104.9887056
carl-duke-volvo-repair-co,Carl Duke Volvo Repair,Repair Shops (XJ/Jeep-Friendly),Fort Collins,CO,"6500, South College Avenue, Fort Collins, CO, 80525",+1-970-225-2559,,"https://www.google.com/maps?q=40.496463,-105.076661","repair, mechanic",,OSM,way/241199413,40.496463,-105.0766605
carlos-auto-repair-co,Carlos Auto Repair,Repair Shops (XJ/Jeep-Friendly),Grand Junction,CO,"333, South 12th Street, Grand Junction, CO, 81501",+1-970-250-2237,,"https://www.google.com/maps?q=39.064690,-108.552723","repair, mechanic",,OSM,way/626430222,39.0646905,-108.5527234
caropractor-co,Caropractor,Repair Shops (XJ/Jeep-Friendly),Aurora,CO,"323, Airport Boulevard, Aurora, CO, 80011",,https://caropractor.com/,"https://www.google.com/maps?q=39.720969,-104.791862","repair, mechanic",,OSM,node/4686750185,39.7209693,-104.791862
carriage-shoppe-co,Carriage Shoppe,Repair Shops (XJ/Jeep-Friendly),Fort Collins,CO,"327, South Link Lane, Fort Collins, CO, 80524",+1-970-482-3597,http://www.carriageshoppe.com,"https://www.google.com/maps?q=40.583750,-105.050655","repair, mechanic",,OSM,node/5995452886,40.5837501,-105.0506554
cars-remember-when-co,Cars Remember When,Repair Shops (XJ/Jeep-Friendly),Littleton,CO,"5794, South Datura Street, Littleton, CO, 80120",,https://www.carsrememberwhen.com/,"https://www.google.com/maps?q=39.611948,-105.003740","repair, mechanic",,OSM,node/12405296125,39.6119481,-105.0037402
castle-rock-imports-co,Castle Rock Imports,Repair Shops (XJ/Jeep-Friendly),Castle Rock,CO,"736, Castleton Road, Castle Rock, CO, 80109",+1-303-660-4355,https://castlerockimports.net/,"https://www.google.com/maps?q=39.409170,-104.872459","repair, mechanic",,OSM,node/12198752144,39.4091699,-104.8724589
cavender-motors-co,Cavender Motors,Repair Shops (XJ/Jeep-Friendly),Watkins,CO,"32071, East Colfax Avenue, Watkins, CO, 80137",+1-303-261-9557,https://m.facebook.com/cavendermotors/,"https://www.google.com/maps?q=39.743407,-104.612649","repair, mechanic",,OSM,node/7465390014,39.7434067,-104.6126486
centennial-automotive-repair-co,Centennial Automotive Repair,Repair Shops (XJ/Jeep-Friendly),Louisville,CO,"302, McCaslin Boulevard, Louisville, CO, 80027",+1-720-513-3013,https://www.automotivelouisville.com/,"https://www.google.com/maps?q=39.965675,-105.162689","repair, mechanic",,OSM,node/6137812119,39.9656749,-105.1626892
center-pit-stop-co,Center Pit Stop,Repair Shops (XJ/Jeep-Friendly),Center,CO,"Center, CO",+1-719-754-0146,,"https://www.google.com/maps?q=37.747946,-106.104279","repair, mechanic",,OSM,node/7278554458,37.7479463,-106.104279
chan-foreign-car-co,Chan Foreign Car,Repair Shops (XJ/Jeep-Friendly),Boulder,CO,"2505, Pine Street, Boulder, CO, 80302",+1-303-449-6449,https://chanforeigncar.com/,"https://www.google.com/maps?q=40.023738,-105.263408","repair, mechanic",,OSM,way/243096286,40.023738,-105.2634082
charvat-s-automotive-and-diesel-specialists-co,Charvat's Automotive and Diesel Specialists,Repair Shops (XJ/Jeep-Friendly),Fort Collins,CO,"429, North College Avenue, Fort Collins, CO, 80524",+1-970-484-8330,http://charvatsautomotive.vpweb.com/,"https://www.google.com/maps?q=40.593840,-105.077069","repair, mechanic",,OSM,way/278143103,40.5938402,-105.0770694
chase-express-lube-and-auto-care-co,Chase Express Lube and Auto Care,Repair Shops (XJ/Jeep-Friendly),Grand Junction,CO,"2769, B 1/2 Road, Grand Junction, CO, 81503",+1-970-270-7355,,"https://www.google.com/maps?q=39.040787,-108.539868","repair, mechanic",,OSM,way/496769101,39.0407869,-108.5398678
choice-city-auto-body-co,Choice City Auto Body,Repair Shops (XJ/Jeep-Friendly),Fort Collins,CO,"815, East Mulberry Street, Fort Collins, CO, 80524",+1-970-493-8558,https://choicecityautobody.com/,"https://www.google.com/maps?q=40.581029,-105.063971","repair, mechanic",,OSM,way/382757339,40.5810291,-105.063971
christian-brothers-automotive-co-3,Christian Brothers Automotive,Repair Shops (XJ/Jeep-Friendly),Highlands Ranch,CO,"1340, Town Center Drive, Highlands Ranch, CO, 80129",+1-720-450-9222,https://www.cbac.com/highlands-ranch/,"https://www.google.com/maps?q=39.550568,-105.006404","repair, mechanic",,OSM,node/6131704936,39.5505684,-105.0064039
christian-brothers-automotive-co-4,Christian Brothers Automotive,Repair Shops (XJ/Jeep-Friendly),Loveland,CO,"5542, North Garfield Avenue, Loveland, CO, 80538",+1-970-800-2122,https://www.cbac.com/,"https://www.google.com/maps?q=40.450204,-105.076510","repair, mechanic",,OSM,node/6360686276,40.4502042,-105.0765101
christian-brothers-automotive-co-2,Christian Brothers Automotive,Repair Shops (XJ/Jeep-Friendly),Peyton,CO,"7699, Mclaughlin Road, Peyton, CO, 80831",+1 719-416-5341,https://www.cbac.com/falcon/,"https://www.google.com/maps?q=38.939335,-104.601327","repair, mechanic",,OSM,node/12588720793,38.9393351,-104.6013273
christian-brothers-automotive-co-5,Christian Brothers Automotive,Repair Shops (XJ/Jeep-Friendly),Castle Rock,CO,"5721, New Abbey Lane, Castle Rock, CO, 80108",+1-720-259-7338,https://locations.cbac.com/castle-rock/,"https://www.google.com/maps?q=39.416909,-104.881879","repair, mechanic",,OSM,way/437234426,39.4169091,-104.8818794
christian-brothers-automotive-co-7,Christian Brothers Automotive,Repair Shops (XJ/Jeep-Friendly),Parker,CO,"9864, Mangano Lane, Parker, CO, 80134",+1 720-549-8614,https://www.cbac.com/parker/,"https://www.google.com/maps?q=39.537651,-104.794279","repair, mechanic",,OSM,way/579535624,39.5376508,-104.7942792
christian-brothers-automotive-co-8,Christian Brothers Automotive,Repair Shops (XJ/Jeep-Friendly),Thornton,CO,"5703, East 136th Avenue, Thornton, CO, 80602",+1-720-605-4841,https://www.cbac.com/thornton/,"https://www.google.com/maps?q=39.943509,-104.920881","repair, mechanic",,OSM,way/777214333,39.9435086,-104.9208811
christian-brothers-automotive-co-9,Christian Brothers Automotive,Repair Shops (XJ/Jeep-Friendly),Aurora,CO,"14755, East Arapahoe Road, Aurora, CO, 80016",+1-720-789-8352,https://www.cbac.com/arapahoe-road/,"https://www.google.com/maps?q=39.595468,-104.816925","repair, mechanic",,OSM,way/916057303,39.5954677,-104.8169252
christian-brothers-automotive-co,Christian Brothers Automotive,Repair Shops (XJ/Jeep-Friendly),Firestone,CO,"6179, Firestone Boulevard, Firestone, CO",,https://www.cbac.com/firestone-blvd/,"https://www.google.com/maps?q=40.161234,-104.938616","repair, mechanic",,OSM,node/11962968574,40.161234,-104.9386158
christian-brothers-automotive-co-6,Christian Brothers Automotive,Repair Shops (XJ/Jeep-Friendly),Colorado Springs,CO,"7355, Duryea Drive, Colorado Springs, CO, 80923",+1 719 362-5924,,"https://www.google.com/maps?q=38.939693,-104.727615","repair, mechanic",,OSM,way/564800124,38.9396935,-104.7276151
christian-brothers-automotive-longmont-co,Christian Brothers Automotive Longmont,Repair Shops (XJ/Jeep-Friendly),Longmont,CO,"110, East Ken Pratt Boulevard, Longmont, CO, 80501",+1-720-605-0932,https://www.cbac.com/longmont/,"https://www.google.com/maps?q=40.153296,-105.091607","repair, mechanic",,OSM,node/11056690899,40.1532963,-105.0916066
chucks-auto-co,Chucks Auto,Repair Shops (XJ/Jeep-Friendly),Colorado Springs,CO,"676, South 8th Street, Colorado Springs, CO, 80905",+1-719-306-8411,,"https://www.google.com/maps?q=38.824820,-104.840533","repair, mechanic",,OSM,node/11389105608,38.8248196,-104.8405332
circle-drive-conoco-co,Circle Drive Conoco,Repair Shops (XJ/Jeep-Friendly),,CO,"2300, East 6th Avenue, CO, 80206",+1-303-377-5545,http://conocophillips.com,"https://www.google.com/maps?q=39.725359,-104.959668","repair, mechanic",,OSM,node/2797919111,39.7253593,-104.959668
classic-collision-co,Classic Collision,Repair Shops (XJ/Jeep-Friendly),Castle Rock,CO,"2807, Highway 85, Castle Rock, CO, 80109",+1-720-682-9181,https://classiccollision.com/locations/classic-collision-castle-rock-north/,"https://www.google.com/maps?q=39.401819,-104.870511","repair, mechanic",,OSM,node/12245050938,39.4018191,-104.8705112
coal-creek-collision-center-co,Coal Creek Collision Center,Repair Shops (XJ/Jeep-Friendly),,CO,CO,+1-303-666-4100,https://www.coalcreekcollision.com/,"https://www.google.com/maps?q=39.981287,-105.128455","repair, mechanic",,OSM,node/2110211152,39.9812865,-105.1284553
collins-auto-renewal-co,Collins Auto Renewal,Repair Shops (XJ/Jeep-Friendly),,CO,"1324, North College Avenue, CO",+1-970-484-7400,,"https://www.google.com/maps?q=40.606184,-105.076100","repair, mechanic",,OSM,way/172542524,40.6061843,-105.0761005
colorado-tire-and-service-co,Colorado Tire and Service,Repair Shops (XJ/Jeep-Friendly),,CO,CO,+1-303-569-6800,https://coloradotireservice.com/,"https://www.google.com/maps?q=39.913182,-104.956836","repair, mechanic",,OSM,way/449009882,39.9131823,-104.9568357
coloradoland-tire-service-co,ColoradoLand Tire & Service,Repair Shops (XJ/Jeep-Friendly),Denver,CO,"8000, East Quincy Avenue, Denver, CO, 80237",+1-303-694-2585,https://www.coloradolandtire.com/,"https://www.google.com/maps?q=39.638305,-104.897418","repair, mechanic",,OSM,node/5240461411,39.6383048,-104.897418
community-auto-repair-co,Community Auto Repair,Repair Shops (XJ/Jeep-Friendly),Denver,CO,"661, East Kentucky Avenue, Denver, CO, 80209",+1-303-691-0717,https://communityautorepairshop.com/,"https://www.google.com/maps?q=39.700547,-104.979738","repair, mechanic",,OSM,node/6292252367,39.700547,-104.979738
cooper-auto-body-co,Cooper Auto Body,Repair Shops (XJ/Jeep-Friendly),Fort Collins,CO,"2520, County Road 54G, Fort Collins, CO, 80524-1097",+1-970-482-9927,http://cooperautobody.com,"https://www.google.com/maps?q=40.626491,-105.123388","repair, mechanic",,OSM,way/278753789,40.6264914,-105.1233881
cooper-s-automotive-co,Cooper's Automotive,Repair Shops (XJ/Jeep-Friendly),Lafayette,CO,"905, South Public Road, Lafayette, CO, 80026",+1-303-665-3700,,"https://www.google.com/maps?q=39.990019,-105.091131","repair, mechanic",,OSM,node/1593504428,39.9900189,-105.091131
corridor-collision-auto-body-paint-co,Corridor Collision Auto Body & Paint,Repair Shops (XJ/Jeep-Friendly),Bennett,CO,"830, Sharis Court, Bennett, CO, 80102",+1-303-644-3755,,"https://www.google.com/maps?q=39.757316,-104.422498","repair, mechanic",,OSM,way/1364619370,39.7573164,-104.422498
country-truck-service-center-co,Country Truck Service Center,Repair Shops (XJ/Jeep-Friendly),Fort Lupton,CO,"13030, County Road 20, Fort Lupton, CO, 80621",+1-303-990-7050,https://countrytruckservice.com/,"https://www.google.com/maps?q=40.130401,-104.809769","repair, mechanic",,OSM,node/6444759171,40.1304005,-104.8097692
coyote-motors-co,Coyote Motors,Repair Shops (XJ/Jeep-Friendly),,CO,CO,,https://coyotemotors.com,"https://www.google.com/maps?q=40.055313,-105.283274","repair, mechanic",,OSM,node/10181832207,40.0553133,-105.2832739
crash-champions-co,Crash Champions,Repair Shops (XJ/Jeep-Friendly),Parker,CO,"10322, Dransfeldt Road, Parker, CO, 80134",+1 303-805-1970,https://crashchampions.com/locations/crash-champions-parker,"https://www.google.com/maps?q=39.529153,-104.771082","repair, mechanic",,OSM,node/4034739817,39.5291529,-104.771082
crash-champions-co-2,Crash Champions,Repair Shops (XJ/Jeep-Friendly),,CO,CO,+1 303-364-7100,https://crashchampions.com/locations/crash-champions-aurora,"https://www.google.com/maps?q=39.749728,-104.809504","repair, mechanic",,OSM,node/9910940634,39.7497277,-104.8095036
crash-champions-collision-repair-castle-rock-co,Crash Champions Collision Repair Castle Rock,Repair Shops (XJ/Jeep-Friendly),Castle Rock,CO,"1935, Liggett Road, Castle Rock, CO, 80109",+1-303-660-6550,https://crashchampions.com/locations/crash-champions-castle-rock,"https://www.google.com/maps?q=39.390584,-104.862704","repair, mechanic",,OSM,way/1283401777,39.3905843,-104.8627039
crash-champions-collision-repair-centennial-co,Crash Champions Collision Repair Centennial,Repair Shops (XJ/Jeep-Friendly),Centennial,CO,"6870, South Jordan Road, Centennial, CO, 80112",+1 303-693-1129,https://crashchampions.com/locations/crash-champions-centennial,"https://www.google.com/maps?q=39.592118,-104.818616","repair, mechanic",,OSM,way/692343112,39.5921182,-104.8186161
crash-champions-stone-mesa-co,Crash Champions Stone Mesa,Repair Shops (XJ/Jeep-Friendly),Colorado Springs,CO,"6205, Stone Mesa Point, Colorado Springs, CO, 80923",+1-719-572-9000,https://crashchampions.com/locations/crash-champions-stone-mesa,"https://www.google.com/maps?q=38.933744,-104.712418","repair, mechanic",,OSM,node/12325137691,38.9337437,-104.7124179
d-paz-bronco-tire-shop-co,D'Paz Bronco Tire Shop,Repair Shops (XJ/Jeep-Friendly),Denver,CO,"7310, East Colfax Avenue, Denver, CO, 80220",+1-720-508-4485,https://www.facebook.com/depazbronco/,"https://www.google.com/maps?q=39.739798,-104.903042","repair, mechanic",,OSM,node/4963092732,39.7397976,-104.903042
dale-s-co,Dale's,Repair Shops (XJ/Jeep-Friendly),,CO,"418, South Lincoln Avenue, CO",+1-970-635-0200,https://www.dalesmobil1lube.com/,"https://www.google.com/maps?q=40.387485,-105.072875","repair, mechanic",,OSM,way/232998558,40.3874846,-105.0728749
dare-to-care-auto-repair-co,Dare to Care Auto Repair,Repair Shops (XJ/Jeep-Friendly),Grand Junction,CO,"2914, North Avenue, Grand Junction, CO, 81504",+1 970 245 8442,https://www.napaonline.com/en/autocare/?facilityId=150768,"https://www.google.com/maps?q=39.077646,-108.512555","repair, mechanic",,OSM,way/497021505,39.077646,-108.5125547
dave-s-automotive-co,Dave's Automotive,Repair Shops (XJ/Jeep-Friendly),Aurora,CO,"70, South Havana Street, Aurora, CO, 80012",+1-303-835-4178,http://auroraautorepairservice.net,"https://www.google.com/maps?q=39.715408,-104.865200","repair, mechanic",,OSM,node/2906592177,39.7154082,-104.8652001
davidson-s-motors-co,Davidson's Motors,Repair Shops (XJ/Jeep-Friendly),,CO,"14300, East Colfax Avenue, CO, 80011",+1-720-859-7403,http://davidsonsmotors.com,"https://www.google.com/maps?q=39.739142,-104.820794","repair, mechanic",,OSM,node/2989080480,39.7391423,-104.8207938
deer-trail-66-co,Deer Trail 66,Repair Shops (XJ/Jeep-Friendly),Deer Trail,CO,"555, 7th Avenue, Deer Trail, CO, 80105",+1-303-807-0769,,"https://www.google.com/maps?q=39.615709,-104.039946","repair, mechanic, 4x4",4x4 focused,OSM,node/7527541056,39.6157086,-104.039946
del-s-auto-repair-co,Del's Auto Repair,Repair Shops (XJ/Jeep-Friendly),Fort Collins,CO,"3620, Manhattan Avenue, Fort Collins, CO, 80526",+1-970-223-6655,http://delsautorepairandtires.com/,"https://www.google.com/maps?q=40.537302,-105.082397","repair, mechanic",,OSM,way/171416192,40.5373018,-105.0823972
denver-window-tint-co,Denver Window Tint,Repair Shops (XJ/Jeep-Friendly),Denver,CO,"2201, South Parker Road, Denver, CO, 80231",+1-303-751-9310,http://www.denverwindowtint.com,"https://www.google.com/maps?q=39.676281,-104.873285","repair, mechanic",,OSM,way/192013158,39.6762813,-104.8732849
divine-fleet-auto-repair-co,Divine Fleet & Auto Repair,Repair Shops (XJ/Jeep-Friendly),Pueblo,CO,"3000, Granada Boulevard, Pueblo, CO, 81005",+1 863-213-9105,,"https://www.google.com/maps?q=38.216867,-104.646976","repair, mechanic",,OSM,node/12804809545,38.2168666,-104.6469759
diy-auto-shop-co,DIY Auto Shop,Repair Shops (XJ/Jeep-Friendly),,CO,CO,+1-303-429-4000,,"https://www.google.com/maps?q=39.830455,-105.027286","repair, mechanic",,OSM,node/4234468019,39.8304548,-105.0272863
done-right-repair-llc-co,Done Right Repair LLC,Repair Shops (XJ/Jeep-Friendly),Grand Junction,CO,"2514, US Highway 6 and 50, Grand Junction, CO, 81505",+1-970-549-1973,https://donerightrepairllc.com/,"https://www.google.com/maps?q=39.082667,-108.586347","repair, mechanic",,OSM,way/890500294,39.0826672,-108.5863465
downing-street-garage-co,Downing Street Garage,Repair Shops (XJ/Jeep-Friendly),Denver,CO,"401, Downing Street, Denver, CO, 80218",+1 303-777-0142,https://www.downingstreetgarage.com/,"https://www.google.com/maps?q=39.722193,-104.973309","repair, mechanic",,OSM,way/664768410,39.7221929,-104.973309
dpf-alternatives-co,DPF Alternatives,Repair Shops (XJ/Jeep-Friendly),Grand Junction,CO,"510, Fruitvale Court, Grand Junction, CO, 81504",+1-720-965-9650,https://dpfalternatives.com/locations/grand-junction-colorado,"https://www.google.com/maps?q=39.080103,-108.489904","repair, mechanic",,OSM,node/8809685428,39.0801026,-108.4899044
