business_id,name,category,city,state,address,phone,website,google_maps_link,tags,jeep_note,source,osm_id,lat,lon
amazing-auto-glass-ga,Amazing Auto Glass,Auto Glass and Windshield,,GA,"7531, APD Highway, GA, 30513",+1-706-463-0550,https://www.amazingauto.glass/,"https://www.google.com/maps?q=34.894358,-84.271103","auto-glass, windshield",,OSM,node/12947420201,34.8943582,-84.2711026
auto-glass-atlanta-llc-ga,Auto Glass Atlanta LLC,Auto Glass and Windshield,Atlanta,GA,"3535, Peachtree Road Northeast, Atlanta, GA, 30326",+1 678-809-3466,,"https://www.google.com/maps?q=33.851565,-84.358809","auto-glass, windshield",,OSM,node/12603693716,33.8515651,-84.3588093
buford-auto-glass-network-ga,Buford Auto Glass Network,Auto Glass and Windshield,Buford,GA,"2354, Royal Pembroke Lane, Buford, GA, 30518",+1-770-766-5565,https://www.bufordautoglassnetwork.net/,"https://www.google.com/maps?q=34.116580,-83.992602","auto-glass, windshield",,OSM,node/5374359404,34.1165803,-83.9926021
empire-auto-glass-ga,Empire Auto Glass,Auto Glass and Windshield,Roswell,GA,"11235, Alpharetta Highway, Roswell, GA, 30076",+1-770-727-0997,https://www.empireautoglassatlanta.com/,"https://www.google.com/maps?q=34.054419,-84.328473","auto-glass, windshield",,OSM,node/13410808751,34.054419,-84.3284727
superglass-windshield-repair-ga,Superglass Windshield Repair,Auto Glass and Windshield,Columbus,GA,"4490, River Rd, Columbus, GA, 31904",+1-706-660-0360,https://superglass.com/,"https://www.google.com/maps?q=32.506876,-84.981443","auto-glass, windshield",,OSM,way/958416499,32.5068757,-84.9814431
get-it-in-gear-ga,Get It In Gear,"Drivetrain Specialists (Axles, Gears, Driveshafts)",Fort Oglethorpe,GA,"2224, Lafayette Road, Fort Oglethorpe, GA, 30742-3753",+1 706 419 8841,https://www.getitingeartransmission.com/,"https://www.google.com/maps?q=34.957169,-85.259023","drivetrain, axle, gears",,OSM,way/988905379,34.957169,-85.2590235
premier-automotive-diagnostics-ga,Premier Automotive Diagnostics,Electrical and Diagnostics (Older Vehicle Friendly),Cumming,GA,"329, Canton Road, Cumming, GA, 30040",+1-470-695-7055,https://www.padiagnostics.com/,"https://www.google.com/maps?q=34.221593,-84.153392","electrical, diagnostics",,OSM,node/9690161844,34.2215932,-84.1533916
ez-auto-spa-ga,EZ Auto Spa,Fabrication and Welding (4x4),Duluth,GA,"3492, Satellite Boulevard, Duluth, GA, 30096",+1-762-227-1677,https://ezautospa.com/locations/ez-auto-duluth/,"https://www.google.com/maps?q=33.962214,-84.131651","fabrication, welding, 4x4",,OSM,node/11818014389,33.9622141,-84.1316512
advance-auto-parts-ga-55,Advance Auto Parts,Parts Shops and 4x4 Retailers,Norcross,GA,"Norcross, GA, 30092",+1-770-840-7224,https://stores.advanceautoparts.com/ga/norcross/3730-holcomb-bridge-rd,"https://www.google.com/maps?q=33.961376,-84.248852","parts, retail",,OSM,node/2707134609,33.9613761,-84.2488516
advance-auto-parts-ga-56,Advance Auto Parts,Parts Shops and 4x4 Retailers,Powder Springs,GA,"5155, Dallas Highway, Powder Springs, GA, 30127",+1-770-528-9985,https://stores.advanceautoparts.com/ga/powder-springs/5155-dallas-hwy,"https://www.google.com/maps?q=33.939881,-84.703262","parts, retail",,OSM,node/2906628299,33.9398811,-84.7032621
advance-auto-parts-ga-57,Advance Auto Parts,Parts Shops and 4x4 Retailers,Trenton,GA,"Trenton, GA, 30752",+1-706-657-7945,https://stores.advanceautoparts.com/ga/trenton/5408-highway-136,"https://www.google.com/maps?q=34.868524,-85.512548","parts, retail",,OSM,node/2917912552,34.8685239,-85.5125485
advance-auto-parts-ga-58,Advance Auto Parts,Parts Shops and 4x4 Retailers,Cleveland,GA,"Cleveland, GA, 30528",+1-706-219-1903,https://stores.advanceautoparts.com/ga/cleveland/381-donald-e-thurmond-pkwy,"https://www.google.com/maps?q=34.576052,-83.762169","parts, retail",,OSM,node/4173239995,34.5760518,-83.762169
advance-auto-parts-ga-59,Advance Auto Parts,Parts Shops and 4x4 Retailers,Glennville,GA,"Glennville, GA, 30427",+1-912-654-8881,https://stores.advanceautoparts.com/ga/glennville/310-s-main-st,"https://www.google.com/maps?q=31.933326,-81.931054","parts, retail",,OSM,node/5288310213,31.9333262,-81.931054
advance-auto-parts-ga-60,Advance Auto Parts,Parts Shops and 4x4 Retailers,Alpharetta,GA,"731, North Main Street, Alpharetta, GA, 30009",+1-678-566-2798,https://stores.advanceautoparts.com/ga/alpharetta/731-n-main-st,"https://www.google.com/maps?q=34.091666,-84.284997","parts, retail",,OSM,node/5700709581,34.091666,-84.284997
advance-auto-parts-ga-61,Advance Auto Parts,Parts Shops and 4x4 Retailers,Folkston,GA,"Folkston, GA, 31537",+1-912-496-4776,https://stores.advanceautoparts.com/ga/folkston/809-s-2-st,"https://www.google.com/maps?q=30.825385,-82.003283","parts, retail",,OSM,node/9241361110,30.8253854,-82.0032831
advance-auto-parts-ga-62,Advance Auto Parts,Parts Shops and 4x4 Retailers,Fort Valley,GA,"Fort Valley, GA, 31030",+1-478-825-1119,https://stores.advanceautoparts.com/ga/fort-valley/200-vineville-st,"https://www.google.com/maps?q=32.559803,-83.885178","parts, retail",,OSM,node/9399390918,32.5598025,-83.8851779
advance-auto-parts-ga-64,Advance Auto Parts,Parts Shops and 4x4 Retailers,Macon,GA,"Macon, GA, 31211",+1-478-742-2422,https://stores.advanceautoparts.com/ga/macon/636-shurling-dr,"https://www.google.com/maps?q=32.860963,-83.612633","parts, retail",,OSM,node/9557244821,32.8609635,-83.6126328
advance-auto-parts-ga-65,Advance Auto Parts,Parts Shops and 4x4 Retailers,Brookhaven,GA,"Brookhaven, GA, 30319",+1-404-636-3304,https://stores.advanceautoparts.com/ga/brookhaven/3426-clairmont-rd-ne,"https://www.google.com/maps?q=33.859109,-84.312260","parts, retail",,OSM,node/9603529046,33.859109,-84.3122598
advance-auto-parts-ga,Advance Auto Parts,Parts Shops and 4x4 Retailers,Brunswick,GA,"Brunswick, GA, 31520",+1-912-554-1595,https://stores.advanceautoparts.com/ga/brunswick/3527-community-rd,"https://www.google.com/maps?q=31.195904,-81.486941","parts, retail",,OSM,node/10144621867,31.1959038,-81.4869414
advance-auto-parts-ga-2,Advance Auto Parts,Parts Shops and 4x4 Retailers,Sylvania,GA,"Sylvania, GA, 30467",+1-912-564-2131,https://stores.advanceautoparts.com/ga/sylvania/1123-w-ogeechee-st,"https://www.google.com/maps?q=32.731336,-81.651319","parts, retail",,OSM,node/10197252281,32.7313355,-81.6513187
advance-auto-parts-ga-3,Advance Auto Parts,Parts Shops and 4x4 Retailers,Columbus,GA,"Columbus, GA, 31907",+1-706-568-0184,https://stores.advanceautoparts.com/ga/columbus/5421-forrest-rd,"https://www.google.com/maps?q=32.482739,-84.900111","parts, retail",,OSM,node/10197252283,32.4827394,-84.9001113
advance-auto-parts-ga-4,Advance Auto Parts,Parts Shops and 4x4 Retailers,Newnan,GA,"Newnan, GA, 30263",+1-678-423-8427,https://stores.advanceautoparts.com/ga/newnan/164-temple-ave,"https://www.google.com/maps?q=33.382891,-84.814551","parts, retail",,OSM,node/10197252285,33.3828911,-84.8145514
advance-auto-parts-ga-5,Advance Auto Parts,Parts Shops and 4x4 Retailers,Manchester,GA,"Manchester, GA, 31816",+1-706-846-3988,https://stores.advanceautoparts.com/ga/manchester/404-n-5th-ave,"https://www.google.com/maps?q=32.858897,-84.620182","parts, retail",,OSM,node/10197252286,32.8588973,-84.6201821
advance-auto-parts-ga-6,Advance Auto Parts,Parts Shops and 4x4 Retailers,Savannah,GA,"Savannah, GA, 31404",+1-912-352-1881,https://stores.advanceautoparts.com/ga/savannah/2820-skidaway-rd,"https://www.google.com/maps?q=32.039067,-81.064854","parts, retail",,OSM,node/10197252287,32.0390668,-81.0648537
advance-auto-parts-ga-7,Advance Auto Parts,Parts Shops and 4x4 Retailers,Dalton,GA,"Dalton, GA, 30720",+1-706-229-6931,https://stores.advanceautoparts.com/ga/dalton/1005-s-thornton-ave,"https://www.google.com/maps?q=34.757294,-84.969255","parts, retail",,OSM,node/10197252288,34.7572939,-84.9692548
advance-auto-parts-ga-8,Advance Auto Parts,Parts Shops and 4x4 Retailers,Atlanta,GA,"Atlanta, GA, 30316",+1-404-622-9660,https://stores.advanceautoparts.com/ga/atlanta/1395-moreland-ave-se,"https://www.google.com/maps?q=33.716422,-84.350008","parts, retail",,OSM,node/10197252291,33.716422,-84.3500081
advance-auto-parts-ga-9,Advance Auto Parts,Parts Shops and 4x4 Retailers,Fitzgerald,GA,"Fitzgerald, GA, 31750",+1-229-424-0046,https://stores.advanceautoparts.com/ga/fitzgerald/182-ocilla-higway,"https://www.google.com/maps?q=31.699814,-83.249837","parts, retail",,OSM,node/10197252292,31.6998136,-83.2498368
advance-auto-parts-ga-10,Advance Auto Parts,Parts Shops and 4x4 Retailers,Grovetown,GA,"Grovetown, GA, 30813",+1-706-228-4455,https://stores.advanceautoparts.com/ga/grovetown/5140-wrightsboro-rd,"https://www.google.com/maps?q=33.457193,-82.198435","parts, retail",,OSM,node/10197252297,33.4571929,-82.198435
advance-auto-parts-ga-11,Advance Auto Parts,Parts Shops and 4x4 Retailers,Roswell,GA,"Roswell, GA, 30075",+1-770-587-3222,https://stores.advanceautoparts.com/ga/roswell/1155-alpharetta-st,"https://www.google.com/maps?q=34.030088,-84.354122","parts, retail",,OSM,node/10197252299,34.0300881,-84.3541224
advance-auto-parts-ga-12,Advance Auto Parts,Parts Shops and 4x4 Retailers,Cornelia,GA,"Cornelia, GA, 30531",+1-706-776-6790,https://stores.advanceautoparts.com/ga/cornelia/109-habersham-hills-cir,"https://www.google.com/maps?q=34.543485,-83.543451","parts, retail",,OSM,node/10197252302,34.5434848,-83.5434508
advance-auto-parts-ga-13,Advance Auto Parts,Parts Shops and 4x4 Retailers,Americus,GA,"Americus, GA, 31709",+1-229-928-9933,https://stores.advanceautoparts.com/ga/americus/1118-e-lamar-st,"https://www.google.com/maps?q=32.071697,-84.218523","parts, retail",,OSM,node/10197252305,32.0716973,-84.2185226
advance-auto-parts-ga-14,Advance Auto Parts,Parts Shops and 4x4 Retailers,Marietta,GA,"2588, Powder Springs Road Southwest, Marietta, GA, 30064",+1-770-943-0064,https://stores.advanceautoparts.com/ga/marietta/2588-powder-springs-rd-sw,"https://www.google.com/maps?q=33.869244,-84.629265","parts, retail",,OSM,node/10197252306,33.8692441,-84.6292654
advance-auto-parts-ga-15,Advance Auto Parts,Parts Shops and 4x4 Retailers,Decatur,GA,"3980, Covington Highway, Decatur, GA, 30032",+1-404-286-1669,https://stores.advanceautoparts.com/ga/decatur/3980-convington-hwy,"https://www.google.com/maps?q=33.756942,-84.237930","parts, retail",,OSM,node/10197252309,33.7569417,-84.2379297
advance-auto-parts-ga-16,Advance Auto Parts,Parts Shops and 4x4 Retailers,Flowery Branch,GA,"Flowery Branch, GA, 30542",+1-770-965-1605,https://stores.advanceautoparts.com/ga/flowery-branch/4022-winder-hwy,"https://www.google.com/maps?q=34.196212,-83.859793","parts, retail",,OSM,node/10197252311,34.196212,-83.8597932
advance-auto-parts-ga-17,Advance Auto Parts,Parts Shops and 4x4 Retailers,Ellenwood,GA,"Ellenwood, GA, 30294",+1-770-507-1018,https://stores.advanceautoparts.com/ga/ellenwood/91-fairview-rd,"https://www.google.com/maps?q=33.620317,-84.237488","parts, retail",,OSM,node/10197252313,33.6203171,-84.2374878
advance-auto-parts-ga-18,Advance Auto Parts,Parts Shops and 4x4 Retailers,Hiram,GA,"5747, Wendy Bagwell Parkway, Hiram, GA, 30141",+1-770-943-7270,https://stores.advanceautoparts.com/ga/hiram/5747-wendy-bagwell-pkwy,"https://www.google.com/maps?q=33.885684,-84.732153","parts, retail",,OSM,node/10197252314,33.885684,-84.7321532
advance-auto-parts-ga-19,Advance Auto Parts,Parts Shops and 4x4 Retailers,Hartwell,GA,"Hartwell, GA, 30643",+1-706-376-1924,https://stores.advanceautoparts.com/ga/hartwell/580-e-franklin-st,"https://www.google.com/maps?q=34.353432,-82.919631","parts, retail",,OSM,node/10197252315,34.3534323,-82.9196307
advance-auto-parts-ga-20,Advance Auto Parts,Parts Shops and 4x4 Retailers,Dublin,GA,"Dublin, GA, 31021",+1-478-272-2000,https://stores.advanceautoparts.com/ga/dublin/2005-veterans-blvd,"https://www.google.com/maps?q=32.542028,-82.951981","parts, retail",,OSM,node/10197252316,32.5420283,-82.9519809
advance-auto-parts-ga-21,Advance Auto Parts,Parts Shops and 4x4 Retailers,Warner Robins,GA,"Warner Robins, GA, 31088",+1-478-328-0622,https://stores.advanceautoparts.com/ga/warner-robins/1216-russell-pkwy,"https://www.google.com/maps?q=32.594468,-83.648070","parts, retail",,OSM,node/10197262817,32.5944676,-83.6480697
advance-auto-parts-ga-22,Advance Auto Parts,Parts Shops and 4x4 Retailers,Riverdale,GA,"Riverdale, GA, 30274",+1-770-994-5526,https://stores.advanceautoparts.com/ga/riverdale/7000-highway-85,"https://www.google.com/maps?q=33.564132,-84.412368","parts, retail",,OSM,node/10197262819,33.5641321,-84.4123685
advance-auto-parts-ga-23,Advance Auto Parts,Parts Shops and 4x4 Retailers,Gainesville,GA,"Gainesville, GA, 30504",+1-770-532-4007,https://stores.advanceautoparts.com/ga/gainesville/2316-browns-bridge-rd,"https://www.google.com/maps?q=34.278758,-83.855355","parts, retail",,OSM,node/10197262820,34.2787579,-83.855355
advance-auto-parts-ga-24,Advance Auto Parts,Parts Shops and 4x4 Retailers,Bethlehem,GA,"Bethlehem, GA, 30620",+1-770-868-1585,https://stores.advanceautoparts.com/ga/bethlehem/915-loganville-hwy,"https://www.google.com/maps?q=33.945021,-83.756914","parts, retail",,OSM,node/10197262821,33.9450209,-83.7569145
advance-auto-parts-ga-25,Advance Auto Parts,Parts Shops and 4x4 Retailers,Toccoa,GA,"Toccoa, GA, 30577",+1-706-886-5175,https://stores.advanceautoparts.com/ga/toccoa/1485-big-a-rd,"https://www.google.com/maps?q=34.567137,-83.301191","parts, retail",,OSM,node/10197262822,34.5671367,-83.301191
advance-auto-parts-ga-26,Advance Auto Parts,Parts Shops and 4x4 Retailers,Cumming,GA,"Cumming, GA, 30041",+1-678-648-7269,https://stores.advanceautoparts.com/ga/cumming/3427-keith-bridge-rd,"https://www.google.com/maps?q=34.258932,-84.073910","parts, retail",,OSM,node/10197262823,34.2589321,-84.0739099
advance-auto-parts-ga-27,Advance Auto Parts,Parts Shops and 4x4 Retailers,Tallapoosa,GA,"Tallapoosa, GA, 30176",+1-770-574-7117,https://stores.advanceautoparts.com/ga/tallapoosa/2300-us-highway-78,"https://www.google.com/maps?q=33.743877,-85.282955","parts, retail",,OSM,node/10197262824,33.743877,-85.2829545
advance-auto-parts-ga-28,Advance Auto Parts,Parts Shops and 4x4 Retailers,Peachtree City,GA,"Peachtree City, GA, 30269",+1-470-754-6691,https://stores.advanceautoparts.com/ga/peachtree-city/2008-highway-54,"https://www.google.com/maps?q=33.413170,-84.562099","parts, retail",,OSM,node/10197262826,33.41317,-84.562099
advance-auto-parts-ga-29,Advance Auto Parts,Parts Shops and 4x4 Retailers,Summerville,GA,"Summerville, GA, 30747",+1-706-859-0029,https://stores.advanceautoparts.com/ga/summerville/10723-commerce-st,"https://www.google.com/maps?q=34.489177,-85.342564","parts, retail",,OSM,node/10197262827,34.4891774,-85.342564
advance-auto-parts-ga-30,Advance Auto Parts,Parts Shops and 4x4 Retailers,Commerce,GA,"Commerce, GA, 30529",+1-706-335-4464,https://stores.advanceautoparts.com/ga/commerce/543-s-elm-st,"https://www.google.com/maps?q=34.189605,-83.445495","parts, retail",,OSM,node/10197262828,34.1896054,-83.4454947
advance-auto-parts-ga-31,Advance Auto Parts,Parts Shops and 4x4 Retailers,Cochran,GA,"Cochran, GA, 31014",+1-478-934-8686,https://stores.advanceautoparts.com/ga/cochran/175-e-dykes-st,"https://www.google.com/maps?q=32.390922,-83.350275","parts, retail",,OSM,node/10197262830,32.3909218,-83.3502753
advance-auto-parts-ga-32,Advance Auto Parts,Parts Shops and 4x4 Retailers,Statesboro,GA,"Statesboro, GA, 30458",+1-912-871-5799,https://stores.advanceautoparts.com/ga/statesboro/12-veterans-memorial-hwy,"https://www.google.com/maps?q=32.416701,-81.801677","parts, retail",,OSM,node/10197262832,32.4167007,-81.8016773
advance-auto-parts-ga-33,Advance Auto Parts,Parts Shops and 4x4 Retailers,Jackson,GA,"Jackson, GA, 30233",+1-770-775-7855,https://stores.advanceautoparts.com/ga/jackson/749-e-3rd-st,"https://www.google.com/maps?q=33.294922,-83.957608","parts, retail",,OSM,node/10197262838,33.2949222,-83.9576079
advance-auto-parts-ga-34,Advance Auto Parts,Parts Shops and 4x4 Retailers,Evans,GA,"Evans, GA, 30809",+1-706-651-8545,https://stores.advanceautoparts.com/ga/evans/4552-washington-rd,"https://www.google.com/maps?q=33.548548,-82.151449","parts, retail",,OSM,node/10197262839,33.5485482,-82.1514487
advance-auto-parts-ga-35,Advance Auto Parts,Parts Shops and 4x4 Retailers,Waycross,GA,"Waycross, GA, 31501",+1-912-285-8083,https://stores.advanceautoparts.com/ga/waycross/580-ossie-davis-pkwy,"https://www.google.com/maps?q=31.218623,-82.357850","parts, retail",,OSM,node/10197262840,31.2186232,-82.3578499
advance-auto-parts-ga-36,Advance Auto Parts,Parts Shops and 4x4 Retailers,Byron,GA,"Byron, GA, 31008",+1-478-956-1202,https://stores.advanceautoparts.com/ga/byron/104-ga-highway-49-s,"https://www.google.com/maps?q=32.651078,-83.758060","parts, retail",,OSM,node/10197262841,32.6510784,-83.7580597
advance-auto-parts-ga-37,Advance Auto Parts,Parts Shops and 4x4 Retailers,Union City,GA,"Union City, GA, 30291",+1-770-892-7096,https://stores.advanceautoparts.com/ga/union-city/4548-jonesboro-rd,"https://www.google.com/maps?q=33.567139,-84.536869","parts, retail",,OSM,node/10197262844,33.5671391,-84.5368686
advance-auto-parts-ga-38,Advance Auto Parts,Parts Shops and 4x4 Retailers,Blackshear,GA,"Blackshear, GA, 31516",+1-912-449-5880,https://stores.advanceautoparts.com/ga/blackshear/239-ware-st,"https://www.google.com/maps?q=31.302922,-82.245058","parts, retail",,OSM,node/10197262845,31.3029222,-82.2450577
advance-auto-parts-ga-39,Advance Auto Parts,Parts Shops and 4x4 Retailers,Augusta,GA,"Augusta, GA, 30909",+1-706-737-5077,https://stores.advanceautoparts.com/ga/augusta/3504-wrightsboro-rd,"https://www.google.com/maps?q=33.464852,-82.087800","parts, retail",,OSM,node/10197262847,33.4648523,-82.0877997
advance-auto-parts-ga-40,Advance Auto Parts,Parts Shops and 4x4 Retailers,College Park,GA,"College Park, GA, 30349",+1-770-996-1154,https://stores.advanceautoparts.com/ga/college-park/5621-riverdale-rd,"https://www.google.com/maps?q=33.601505,-84.430292","parts, retail",,OSM,node/10197262851,33.6015054,-84.4302924
advance-auto-parts-ga-41,Advance Auto Parts,Parts Shops and 4x4 Retailers,Chickamauga,GA,"Chickamauga, GA, 30707",+1-706-375-6140,https://stores.advanceautoparts.com/ga/chickamauga/13147-n-highway-27,"https://www.google.com/maps?q=34.887914,-85.268100","parts, retail",,OSM,node/10197262854,34.8879142,-85.2681
advance-auto-parts-ga-42,Advance Auto Parts,Parts Shops and 4x4 Retailers,Mcdonough,GA,"Mcdonough, GA, 30253",+1-770-914-5898,https://stores.advanceautoparts.com/ga/mcdonough/250-keys-ferry-st,"https://www.google.com/maps?q=33.447274,-84.136993","parts, retail",,OSM,node/10197262860,33.4472736,-84.1369932
advance-auto-parts-ga-43,Advance Auto Parts,Parts Shops and 4x4 Retailers,Fairburn,GA,"Fairburn, GA, 30213",+1-678-369-2003,https://stores.advanceautoparts.com/ga/fairburn/5280-campbellton-fairburn-rd,"https://www.google.com/maps?q=33.614702,-84.612771","parts, retail",,OSM,node/10197262862,33.6147025,-84.6127715
advance-auto-parts-ga-44,Advance Auto Parts,Parts Shops and 4x4 Retailers,Rome,GA,"Rome, GA, 30165",+1-706-235-9667,https://stores.advanceautoparts.com/ga/rome/2205-shorter-ave-sw,"https://www.google.com/maps?q=34.270776,-85.226925","parts, retail",,OSM,node/10197262865,34.270776,-85.2269252
advance-auto-parts-ga-45,Advance Auto Parts,Parts Shops and 4x4 Retailers,Pooler,GA,"Pooler, GA, 31322",+1-912-748-9199,https://stores.advanceautoparts.com/ga/pooler/1131-us-highway-80-w,"https://www.google.com/maps?q=32.122395,-81.269702","parts, retail",,OSM,node/10197262872,32.1223953,-81.269702
advance-auto-parts-ga-46,Advance Auto Parts,Parts Shops and 4x4 Retailers,Stockbridge,GA,"Stockbridge, GA, 30281",+1-770-474-6788,https://stores.advanceautoparts.com/ga/stockbridge/5412-n-henry-blvd,"https://www.google.com/maps?q=33.550528,-84.255083","parts, retail",,OSM,node/10197262876,33.5505277,-84.2550825
advance-auto-parts-ga-47,Advance Auto Parts,Parts Shops and 4x4 Retailers,Claxton,GA,"Claxton, GA, 30417",+1-912-739-1998,https://stores.advanceautoparts.com/ga/claxton/501-n-duval-st,"https://www.google.com/maps?q=32.171076,-81.899637","parts, retail",,OSM,node/10197262879,32.1710763,-81.8996375
advance-auto-parts-ga-48,Advance Auto Parts,Parts Shops and 4x4 Retailers,Albany,GA,"Albany, GA, 31701",+1-229-436-6138,https://stores.advanceautoparts.com/ga/albany/108-s-slappey-blvd,"https://www.google.com/maps?q=31.576314,-84.175664","parts, retail",,OSM,node/10197262880,31.5763143,-84.1756636
advance-auto-parts-ga-49,Advance Auto Parts,Parts Shops and 4x4 Retailers,Dallas,GA,"Dallas, GA, 30132",+1-678-496-9513,https://stores.advanceautoparts.com/ga/dallas/8721-dallas-acworth-hwy,"https://www.google.com/maps?q=34.010156,-84.756010","parts, retail",,OSM,node/10197262885,34.0101557,-84.7560098
advance-auto-parts-ga-50,Advance Auto Parts,Parts Shops and 4x4 Retailers,Lilburn,GA,"Lilburn, GA, 30047",+1-770-500-1152,https://stores.advanceautoparts.com/ga/lilburn/3965-lawrenceville-hwy-nw,"https://www.google.com/maps?q=33.905536,-84.113022","parts, retail",,OSM,node/10197262889,33.9055359,-84.1130219
advance-auto-parts-ga-51,Advance Auto Parts,Parts Shops and 4x4 Retailers,Fayetteville,GA,"Fayetteville, GA, 30214",+1-770-461-8160,https://stores.advanceautoparts.com/ga/fayetteville/295-glynn-st-s,"https://www.google.com/maps?q=33.444150,-84.455557","parts, retail",,OSM,node/10197262890,33.4441502,-84.4555575
advance-auto-parts-ga-52,Advance Auto Parts,Parts Shops and 4x4 Retailers,Winder,GA,"Winder, GA, 30680",+1-770-307-0025,https://stores.advanceautoparts.com/ga/winder/215-n-broad-st,"https://www.google.com/maps?q=33.998615,-83.711646","parts, retail",,OSM,node/10197262891,33.9986155,-83.7116461
advance-auto-parts-ga-53,Advance Auto Parts,Parts Shops and 4x4 Retailers,Eastman,GA,"Eastman, GA, 31023",+1-478-374-9181,https://stores.advanceautoparts.com/ga/eastman/401-oak-st,"https://www.google.com/maps?q=32.195022,-83.175752","parts, retail",,OSM,node/10197262893,32.1950224,-83.1757522
advance-auto-parts-ga-54,Advance Auto Parts,Parts Shops and 4x4 Retailers,Moultrie,GA,"Moultrie, GA, 31768",+1 229-985-6442,https://stores.advanceautoparts.com/ga/moultrie/1725-1st-ave-se,"https://www.google.com/maps?q=31.177362,-83.762961","parts, retail",,OSM,node/13357901910,31.1773617,-83.7629607
advance-auto-parts-ga-87,Advance Auto Parts,Parts Shops and 4x4 Retailers,Dahlonega,GA,"50, Pinetree Way, Dahlonega, GA, 30533",+1-706-482-0006,https://stores.advanceautoparts.com/ga/dahlonega/50-pinetree-way,"https://www.google.com/maps?q=34.532400,-83.976222","parts, retail",,OSM,way/178363561,34.5323997,-83.9762216
advance-auto-parts-ga-88,Advance Auto Parts,Parts Shops and 4x4 Retailers,Chamblee,GA,"Chamblee, GA, 30341",+1-770-621-0163,https://stores.advanceautoparts.com/ga/chamblee/3611-chamblee-tucker-rd,"https://www.google.com/maps?q=33.883587,-84.246170","parts, retail",,OSM,way/181678319,33.8835866,-84.2461699
advance-auto-parts-ga-89,Advance Auto Parts,Parts Shops and 4x4 Retailers,Loganville,GA,"Loganville, GA, 30052",+1-770-554-1441,https://stores.advanceautoparts.com/ga/loganville/4358-atlanta-hwy,"https://www.google.com/maps?q=33.840023,-83.904819","parts, retail",,OSM,way/261096636,33.8400225,-83.9048193
advance-auto-parts-ga-90,Advance Auto Parts,Parts Shops and 4x4 Retailers,Forsyth,GA,"Forsyth, GA, 31029",+1-478-994-2525,https://stores.advanceautoparts.com/ga/forsyth/123-n-lee-st,"https://www.google.com/maps?q=33.037994,-83.938018","parts, retail",,OSM,way/282769887,33.0379936,-83.9380181
advance-auto-parts-ga-91,Advance Auto Parts,Parts Shops and 4x4 Retailers,Hinesville,GA,"Hinesville, GA, 31313",+1-912-341-6501,https://stores.advanceautoparts.com/ga/hinesville/436-elma-g-miles-pkwy,"https://www.google.com/maps?q=31.841266,-81.599988","parts, retail",,OSM,way/283887783,31.8412656,-81.5999882
advance-auto-parts-ga-92,Advance Auto Parts,Parts Shops and 4x4 Retailers,Dawsonville,GA,"Dawsonville, GA, 30534",+1-706-216-1527,https://stores.advanceautoparts.com/ga/dawsonville/45-bethel-dr,"https://www.google.com/maps?q=34.346273,-84.049038","parts, retail",,OSM,way/302009606,34.3462727,-84.049038
advance-auto-parts-ga-93,Advance Auto Parts,Parts Shops and 4x4 Retailers,Athens,GA,"332, North Avenue, Athens, GA, 30601",+1-706-549-2782,https://stores.advanceautoparts.com/ga/athens/332-north-ave,"https://www.google.com/maps?q=33.974738,-83.364288","parts, retail",,OSM,way/303955154,33.9747379,-83.3642876
advance-auto-parts-ga-94,Advance Auto Parts,Parts Shops and 4x4 Retailers,Kennesaw,GA,"1660, North Roberts Road, Kennesaw, GA, 30144",+1-770-428-3414,https://stores.advanceautoparts.com/ga/kennesaw/1660-n-roberts-rd-nw,"https://www.google.com/maps?q=34.003712,-84.599723","parts, retail",,OSM,way/308651209,34.0037124,-84.5997227
advance-auto-parts-ga-95,Advance Auto Parts,Parts Shops and 4x4 Retailers,Palmetto,GA,"Palmetto, GA, 30268",+1-770-463-3160,https://stores.advanceautoparts.com/ga/palmetto/9155-roosevelt-hwy,"https://www.google.com/maps?q=33.528847,-84.661293","parts, retail",,OSM,way/310656558,33.5288465,-84.6612933
advance-auto-parts-ga-96,Advance Auto Parts,Parts Shops and 4x4 Retailers,Douglasville,GA,"Douglasville, GA, 30135",+1-770-920-5800,https://stores.advanceautoparts.com/ga/douglasville/5835-stewart-pkwy,"https://www.google.com/maps?q=33.718145,-84.767568","parts, retail",,OSM,way/318944673,33.718145,-84.767568
advance-auto-parts-ga-97,Advance Auto Parts,Parts Shops and 4x4 Retailers,Cairo,GA,"Cairo, GA, 39828",+1-229-377-6460,https://stores.advanceautoparts.com/ga/cairo/340-8th-ave-ne,"https://www.google.com/maps?q=30.885962,-84.204798","parts, retail",,OSM,way/336625255,30.8859615,-84.2047984
advance-auto-parts-ga-98,Advance Auto Parts,Parts Shops and 4x4 Retailers,Nashville,GA,"520, South Davis Street, Nashville, GA, 31639",+1-229-686-6806,https://stores.advanceautoparts.com/ga/nashville/520-s-davis-st,"https://www.google.com/maps?q=31.200573,-83.250574","parts, retail",,OSM,way/366052577,31.2005733,-83.2505745
advance-auto-parts-ga-99,Advance Auto Parts,Parts Shops and 4x4 Retailers,Canton,GA,"Canton, GA, 30115",+1-770-479-2128,https://stores.advanceautoparts.com/ga/canton/6225-hickory-flat-hwy,"https://www.google.com/maps?q=34.175877,-84.417434","parts, retail",,OSM,way/366389125,34.1758766,-84.417434
advance-auto-parts-ga-100,Advance Auto Parts,Parts Shops and 4x4 Retailers,Valdosta,GA,"Valdosta, GA, 31605",+1-229-671-9339,https://stores.advanceautoparts.com/ga/valdosta/4025-bemiss-rd,"https://www.google.com/maps?q=30.910295,-83.263796","parts, retail",,OSM,way/370220166,30.910295,-83.2637962
advance-auto-parts-ga-101,Advance Auto Parts,Parts Shops and 4x4 Retailers,East Ellijay,GA,"East Ellijay, GA, 30540",+1-706-276-6131,https://stores.advanceautoparts.com/ga/east-ellijay/74-craig-st,"https://www.google.com/maps?q=34.678083,-84.476598","parts, retail",,OSM,way/377377147,34.6780827,-84.4765982
advance-auto-parts-ga-102,Advance Auto Parts,Parts Shops and 4x4 Retailers,Lithonia,GA,"Lithonia, GA, 30058",+1-770-981-9894,https://stores.advanceautoparts.com/ga/lithonia/2235-panola-rd,"https://www.google.com/maps?q=33.724826,-84.168014","parts, retail",,OSM,way/377791432,33.7248256,-84.1680138
advance-auto-parts-ga-103,Advance Auto Parts,Parts Shops and 4x4 Retailers,Sugar Hill,GA,"4675, Buford Drive, Sugar Hill, GA, 30518",+1-770-271-2275,https://stores.advanceautoparts.com/ga/sugar-hill/4675-nelson-brogdon-blvd,"https://www.google.com/maps?q=34.101846,-84.020180","parts, retail",,OSM,way/384033978,34.1018464,-84.0201799
advance-auto-parts-ga-104,Advance Auto Parts,Parts Shops and 4x4 Retailers,Suwanee,GA,"Suwanee, GA, 30024",+1-770-271-9191,https://stores.advanceautoparts.com/ga/suwanee/3379-lawrenceville-suwanee-rd,"https://www.google.com/maps?q=34.040082,-84.052628","parts, retail",,OSM,way/387378874,34.0400819,-84.0526282
advance-auto-parts-ga-105,Advance Auto Parts,Parts Shops and 4x4 Retailers,Buford,GA,"4955, Lanier Islands Parkway, Buford, GA, 30518",+1-678-714-4679,https://stores.advanceautoparts.com/ga/buford/4955-lanier-islands-pkwy,"https://www.google.com/maps?q=34.144371,-83.955504","parts, retail",,OSM,way/387379033,34.1443709,-83.9555043
advance-auto-parts-ga-106,Advance Auto Parts,Parts Shops and 4x4 Retailers,Lawrenceville,GA,"Lawrenceville, GA, 30043",+1-678-376-5084,https://stores.advanceautoparts.com/ga/lawrenceville/802-buford-dr,"https://www.google.com/maps?q=33.982647,-83.985593","parts, retail",,OSM,way/388488223,33.9826465,-83.9855929
advance-auto-parts-ga-107,Advance Auto Parts,Parts Shops and 4x4 Retailers,Snellville,GA,"Snellville, GA, 30078",+1-770-972-9102,https://stores.advanceautoparts.com/ga/snellville/2247-main-st-e,"https://www.google.com/maps?q=33.855263,-84.006002","parts, retail",,OSM,way/388764094,33.8552633,-84.0060021
advance-auto-parts-ga-108,Advance Auto Parts,Parts Shops and 4x4 Retailers,Dacula,GA,"2600, Winder Highway, Dacula, GA, 30019",+1-770-339-0189,https://stores.advanceautoparts.com/ga/dacula/2600-winder-hwy,"https://www.google.com/maps?q=33.987772,-83.891459","parts, retail",,OSM,way/389921254,33.9877718,-83.8914593
advance-auto-parts-ga-109,Advance Auto Parts,Parts Shops and 4x4 Retailers,Grayson,GA,"2427, Grayson, GA, 30017",+1-770-513-4244,https://stores.advanceautoparts.com/ga/grayson/2425-loganville-hwy,"https://www.google.com/maps?q=33.887049,-83.946530","parts, retail",,OSM,way/390978318,33.8870493,-83.94653
advance-auto-parts-ga-110,Advance Auto Parts,Parts Shops and 4x4 Retailers,Monroe,GA,"Monroe, GA, 30655",+1-770-267-6555,https://stores.advanceautoparts.com/ga/monroe/1120-w-spring-st,"https://www.google.com/maps?q=33.793282,-83.732279","parts, retail",,OSM,way/391034675,33.7932824,-83.7322789
advance-auto-parts-ga-111,Advance Auto Parts,Parts Shops and 4x4 Retailers,Duluth,GA,"Duluth, GA, 30096",+1-770-495-1669,https://stores.advanceautoparts.com/ga/duluth/3795-buford-hwy,"https://www.google.com/maps?q=33.981486,-84.158157","parts, retail",,OSM,way/392336553,33.981486,-84.158157
advance-auto-parts-ga-112,Advance Auto Parts,Parts Shops and 4x4 Retailers,Doraville,GA,"Doraville, GA, 30340",+1-770-455-7155,https://stores.advanceautoparts.com/ga/doraville/5800-buford-hwy-ne,"https://www.google.com/maps?q=33.909816,-84.266822","parts, retail",,OSM,way/392502821,33.9098159,-84.2668221
advance-auto-parts-ga-113,Advance Auto Parts,Parts Shops and 4x4 Retailers,Villa Rica,GA,"620, West Bankhead Highway, Villa Rica, GA, 30180",+1-770-456-2777,https://stores.advanceautoparts.com/ga/villa-rica/620-w-bankhead-hwy,"https://www.google.com/maps?q=33.730323,-84.934136","parts, retail",,OSM,way/416806493,33.7303227,-84.9341362
advance-auto-parts-ga-114,Advance Auto Parts,Parts Shops and 4x4 Retailers,Adairsville,GA,"Adairsville, GA, 30103",+1-770-877-3072,https://stores.advanceautoparts.com/ga/adairsville/20-eagle-pkwy,"https://www.google.com/maps?q=34.377430,-84.929698","parts, retail",,OSM,way/429979305,34.37743,-84.929698
advance-auto-parts-ga-115,Advance Auto Parts,Parts Shops and 4x4 Retailers,Calhoun,GA,"Calhoun, GA, 30701",+1-706-629-4121,https://stores.advanceautoparts.com/ga/calhoun/1117-s-wall-st,"https://www.google.com/maps?q=34.480465,-84.938088","parts, retail",,OSM,way/430677077,34.4804648,-84.9380881
advance-auto-parts-ga-116,Advance Auto Parts,Parts Shops and 4x4 Retailers,Cartersville,GA,"Cartersville, GA, 30120",+1-770-606-8474,https://stores.advanceautoparts.com/ga/cartersville/915-joe-frank-harris-pkwy-se,"https://www.google.com/maps?q=34.197766,-84.792426","parts, retail",,OSM,way/444677962,34.1977657,-84.7924258
advance-auto-parts-ga-117,Advance Auto Parts,Parts Shops and 4x4 Retailers,Adel,GA,"Adel, GA, 31620",+1-229-896-5230,https://stores.advanceautoparts.com/ga/adel/212-w-4th-st,"https://www.google.com/maps?q=31.137114,-83.425725","parts, retail",,OSM,way/479184844,31.1371139,-83.425725
advance-auto-parts-ga-118,Advance Auto Parts,Parts Shops and 4x4 Retailers,Milledgeville,GA,"Milledgeville, GA, 31061",+1-478-453-3000,https://stores.advanceautoparts.com/ga/milledgeville/1710-n-columbia-st,"https://www.google.com/maps?q=33.100048,-83.247651","parts, retail",,OSM,way/482373649,33.1000479,-83.2476508
advance-auto-parts-ga-119,Advance Auto Parts,Parts Shops and 4x4 Retailers,Jasper,GA,"71, Whitfield Drive, Jasper, GA, 30143",+1-706-692-3898,https://stores.advanceautoparts.com/ga/jasper/71-whitfield-dr,"https://www.google.com/maps?q=34.460977,-84.457304","parts, retail",,OSM,way/488151703,34.4609773,-84.457304
advance-auto-parts-ga-120,Advance Auto Parts,Parts Shops and 4x4 Retailers,Clayton,GA,"696, Highway 441 South, Clayton, GA, 30525",+1-706-782-1546,https://stores.advanceautoparts.com/ga/clayton/696-highway-441-s,"https://www.google.com/maps?q=34.868858,-83.401974","parts, retail",,OSM,way/494207385,34.8688578,-83.4019738
advance-auto-parts-ga-121,Advance Auto Parts,Parts Shops and 4x4 Retailers,Jonesboro,GA,"Jonesboro, GA, 30236",+1-770-210-1400,https://stores.advanceautoparts.com/ga/jonesboro/1289-spur-highway-138,"https://www.google.com/maps?q=33.538678,-84.348949","parts, retail",,OSM,way/494402504,33.5386784,-84.3489489
advance-auto-parts-ga-122,Advance Auto Parts,Parts Shops and 4x4 Retailers,Madison,GA,"1710, Eatonton Highway, Madison, GA, 30650",+1-706-752-1645,https://stores.advanceautoparts.com/ga/madison/1710-eatonton-rd,"https://www.google.com/maps?q=33.565444,-83.477657","parts, retail",,OSM,way/500011325,33.5654439,-83.4776574
advance-auto-parts-ga-123,Advance Auto Parts,Parts Shops and 4x4 Retailers,Acworth,GA,"Acworth, GA, 30102",+1-770-592-1129,https://stores.advanceautoparts.com/ga/acworth/5741-bells-ferry-rd,"https://www.google.com/maps?q=34.090919,-84.580534","parts, retail",,OSM,way/510784653,34.0909186,-84.5805341
advance-auto-parts-ga-124,Advance Auto Parts,Parts Shops and 4x4 Retailers,Gray,GA,"Gray, GA, 31032",+1-478-986-0356,https://stores.advanceautoparts.com/ga/gray/222-w-clinton-st,"https://www.google.com/maps?q=33.007009,-83.543864","parts, retail",,OSM,way/538690175,33.0070093,-83.5438643
advance-auto-parts-ga-125,Advance Auto Parts,Parts Shops and 4x4 Retailers,Ringgold,GA,"5072, Alabama Highway, Ringgold, GA, 30736",+1-706-965-8520,https://stores.advanceautoparts.com/ga/ringgold/5072-alabama-hwy,"https://www.google.com/maps?q=34.917316,-85.124337","parts, retail",,OSM,way/541092097,34.9173159,-85.1243374
advance-auto-parts-ga-126,Advance Auto Parts,Parts Shops and 4x4 Retailers,Conyers,GA,"Conyers, GA, 30013",+1-770-860-1765,https://stores.advanceautoparts.com/ga/conyers/2021-flat-shoals-rd-se,"https://www.google.com/maps?q=33.629877,-83.977667","parts, retail",,OSM,way/542612500,33.6298765,-83.9776666
advance-auto-parts-ga-127,Advance Auto Parts,Parts Shops and 4x4 Retailers,Sandersville,GA,"Sandersville, GA, 31082",+1-478-552-9192,https://stores.advanceautoparts.com/ga/sandersville/830-s-harris-st,"https://www.google.com/maps?q=32.966797,-82.809620","parts, retail",,OSM,way/555053741,32.9667969,-82.8096196
advance-auto-parts-ga-128,Advance Auto Parts,Parts Shops and 4x4 Retailers,Kingsland,GA,"Kingsland, GA, 31548",+1-912-729-2667,https://stores.advanceautoparts.com/ga/kingsland/760-e-king-ave,"https://www.google.com/maps?q=30.800602,-81.681896","parts, retail",,OSM,way/572566761,30.8006023,-81.6818964
advance-auto-parts-ga-129,Advance Auto Parts,Parts Shops and 4x4 Retailers,Martinez,GA,"Martinez, GA, 30907",+1-706-868-5157,https://stores.advanceautoparts.com/ga/martinez/4018-washington-rd,"https://www.google.com/maps?q=33.510379,-82.104380","parts, retail",,OSM,way/586137025,33.5103788,-82.1043804
advance-auto-parts-ga-130,Advance Auto Parts,Parts Shops and 4x4 Retailers,Carrollton,GA,"Carrollton, GA, 30117",+1-770-830-7228,https://stores.advanceautoparts.com/ga/carrollton/417-bankhead-hwy,"https://www.google.com/maps?q=33.585069,-85.059827","parts, retail",,OSM,way/591883560,33.5850686,-85.0598268
advance-auto-parts-ga-131,Advance Auto Parts,Parts Shops and 4x4 Retailers,Hephzibah,GA,"Hephzibah, GA, 30815",+1-706-560-2192,https://stores.advanceautoparts.com/ga/hephzibah/2522-tobacco-rd,"https://www.google.com/maps?q=33.376626,-82.075956","parts, retail",,OSM,way/679030899,33.3766264,-82.0759561
advance-auto-parts-ga-132,Advance Auto Parts,Parts Shops and 4x4 Retailers,Bremen,GA,"Bremen, GA, 30110",+1-770-537-0687,https://stores.advanceautoparts.com/ga/bremen/1521-alabama-ave-s,"https://www.google.com/maps?q=33.692063,-85.149748","parts, retail",,OSM,way/683823227,33.6920627,-85.1497475
advance-auto-parts-ga-133,Advance Auto Parts,Parts Shops and 4x4 Retailers,Fort Oglethorpe,GA,"565, Battlefield Parkway, Fort Oglethorpe, GA, 30742",+1-706-858-9289,https://stores.advanceautoparts.com/ga/fort-oglethorpe/565-battlefield-pkwy,"https://www.google.com/maps?q=34.955167,-85.255481","parts, retail",,OSM,way/690307229,34.9551674,-85.2554808
advance-auto-parts-ga-134,Advance Auto Parts,Parts Shops and 4x4 Retailers,Smyrna,GA,"4729, South Cobb Drive, Smyrna, GA, 30080",+1-770-436-5655,https://stores.advanceautoparts.com/ga/smyrna/4729-s-cobb-dr-se,"https://www.google.com/maps?q=33.838597,-84.493911","parts, retail",,OSM,way/699216235,33.8385967,-84.4939112
advance-auto-parts-ga-135,Advance Auto Parts,Parts Shops and 4x4 Retailers,Jesup,GA,"985, South 1st Street, Jesup, GA, 31545",+1-912-530-6350,https://stores.advanceautoparts.com/ga/jesup/985-s-1st-st,"https://www.google.com/maps?q=31.603985,-81.906307","parts, retail",,OSM,way/741973763,31.6039852,-81.906307
advance-auto-parts-ga-136,Advance Auto Parts,Parts Shops and 4x4 Retailers,Montezuma,GA,"Montezuma, GA, 31063",+1-478-472-1142,https://stores.advanceautoparts.com/ga/montezuma/508-spaulding-rd,"https://www.google.com/maps?q=32.293941,-84.017821","parts, retail",,OSM,way/787858467,32.2939412,-84.0178207
advance-auto-parts-ga-137,Advance Auto Parts,Parts Shops and 4x4 Retailers,Jefferson,GA,"Jefferson, GA, 30549",+1-706-367-5789,https://stores.advanceautoparts.com/ga/jefferson/1714-old-pendergrass-rd,"https://www.google.com/maps?q=34.123390,-83.607467","parts, retail",,OSM,way/802338522,34.1233895,-83.6074675
advance-auto-parts-ga-138,Advance Auto Parts,Parts Shops and 4x4 Retailers,Blue Ridge,GA,"Blue Ridge, GA, 30513",+1-706-258-2478,https://stores.advanceautoparts.com/ga/blue-ridge/230-progress-cir,"https://www.google.com/maps?q=34.873314,-84.324497","parts, retail",,OSM,way/851734134,34.8733137,-84.3244966
advance-auto-parts-ga-139,Advance Auto Parts,Parts Shops and 4x4 Retailers,Hazlehurst,GA,"Hazlehurst, GA, 31539",+1-912-375-5550,https://stores.advanceautoparts.com/ga/hazlehurst/116-s-tallahassee-st,"https://www.google.com/maps?q=31.860612,-82.605046","parts, retail",,OSM,way/925887711,31.860612,-82.605046
advance-auto-parts-ga-140,Advance Auto Parts,Parts Shops and 4x4 Retailers,Eatonton,GA,"Eatonton, GA, 31024",+1-706-485-7477,https://stores.advanceautoparts.com/ga/eatonton/104-s-oak-st,"https://www.google.com/maps?q=33.323200,-83.387338","parts, retail",,OSM,way/926253560,33.3232001,-83.3873385
advance-auto-parts-ga-141,Advance Auto Parts,Parts Shops and 4x4 Retailers,Woodstock,GA,"Woodstock, GA, 30188",+1-770-924-4122,https://stores.advanceautoparts.com/ga/woodstock/150-village-ctr-e,"https://www.google.com/maps?q=34.087899,-84.467533","parts, retail",,OSM,way/941115188,34.087899,-84.4675326
advance-auto-parts-ga-142,Advance Auto Parts,Parts Shops and 4x4 Retailers,Mableton,GA,"730, Veterans Memorial Highway Southwest, Mableton, GA, 30126",+1-770-944-2925,https://stores.advanceautoparts.com/ga/mableton/730-veterans-memorial-hwy-sw,"https://www.google.com/maps?q=33.818868,-84.575225","parts, retail",,OSM,way/941985875,33.8188678,-84.5752246
advance-auto-parts-ga-143,Advance Auto Parts,Parts Shops and 4x4 Retailers,Garden City,GA,"Garden City, GA, 31408",+1-912-966-0227,https://stores.advanceautoparts.com/ga/garden-city/422-us-highway-80-w,"https://www.google.com/maps?q=32.094350,-81.145769","parts, retail",,OSM,way/942715685,32.0943505,-81.1457692
advance-auto-parts-ga-144,Advance Auto Parts,Parts Shops and 4x4 Retailers,Thomasville,GA,"1208, East Jackson Street, Thomasville, GA, 31792",+1-229-227-1146,https://stores.advanceautoparts.com/ga/thomasville/1208-e-jackson-st,"https://www.google.com/maps?q=30.849197,-83.962478","parts, retail",,OSM,way/958949106,30.8491971,-83.9624782
advance-auto-parts-ga-145,Advance Auto Parts,Parts Shops and 4x4 Retailers,Morrow,GA,"Morrow, GA, 30260",+1-678-422-6225,https://stores.advanceautoparts.com/ga/morrow/5720-jonesboro-rd,"https://www.google.com/maps?q=33.599125,-84.338269","parts, retail",,OSM,way/968505338,33.5991253,-84.3382694
advance-auto-parts-ga-146,Advance Auto Parts,Parts Shops and 4x4 Retailers,Forest Park,GA,"Forest Park, GA, 30297",+1-404-361-3071,https://stores.advanceautoparts.com/ga/forest-park/4592-jonesboro-rd,"https://www.google.com/maps?q=33.629405,-84.355662","parts, retail",,OSM,way/968836851,33.629405,-84.3556625
advance-auto-parts-ga-147,Advance Auto Parts,Parts Shops and 4x4 Retailers,Tucker,GA,"Tucker, GA, 30084",+1-770-934-0797,https://stores.advanceautoparts.com/ga/tucker/4085-lawrenceville-hwy,"https://www.google.com/maps?q=33.850207,-84.214688","parts, retail",,OSM,way/972517612,33.850207,-84.214688
advance-auto-parts-ga-148,Advance Auto Parts,Parts Shops and 4x4 Retailers,Richmond Hill,GA,"Richmond Hill, GA, 31324",+1-912-756-5252,https://stores.advanceautoparts.com/ga/richmond-hill/2196-us-highway-17,"https://www.google.com/maps?q=31.951722,-81.311608","parts, retail",,OSM,way/973578791,31.9517219,-81.3116081
advance-auto-parts-ga-149,Advance Auto Parts,Parts Shops and 4x4 Retailers,Lagrange,GA,"Lagrange, GA, 30240",+1-706-882-0667,https://stores.advanceautoparts.com/ga/lagrange/426-new-franklin-rd,"https://www.google.com/maps?q=33.051754,-85.028200","parts, retail",,OSM,way/980679315,33.051754,-85.0282005
advance-auto-parts-ga-150,Advance Auto Parts,Parts Shops and 4x4 Retailers,Rockmart,GA,"Rockmart, GA, 30153",+1-678-757-1105,https://stores.advanceautoparts.com/ga/rockmart/120-felton-dr,"https://www.google.com/maps?q=34.010917,-85.040797","parts, retail",,OSM,way/982068193,34.0109175,-85.0407971
advance-auto-parts-ga-151,Advance Auto Parts,Parts Shops and 4x4 Retailers,Cedartown,GA,"Cedartown, GA, 30125",+1-770-748-1181,https://stores.advanceautoparts.com/ga/cedartown/904-n-main-st,"https://www.google.com/maps?q=34.029601,-85.246984","parts, retail",,OSM,way/982076249,34.0296013,-85.2469836
advance-auto-parts-ga-152,Advance Auto Parts,Parts Shops and 4x4 Retailers,Griffin,GA,"Griffin, GA, 30223",+1-770-228-2112,https://stores.advanceautoparts.com/ga/griffin/310-w-taylor-st,"https://www.google.com/maps?q=33.246833,-84.267906","parts, retail",,OSM,way/993542486,33.2468329,-84.2679065
advance-auto-parts-ga-153,Advance Auto Parts,Parts Shops and 4x4 Retailers,Thomaston,GA,"Thomaston, GA, 30286",+1-706-648-6244,https://stores.advanceautoparts.com/ga/thomaston/712-n-church-st,"https://www.google.com/maps?q=32.904002,-84.329072","parts, retail",,OSM,way/994881749,32.9040025,-84.3290717
advance-auto-parts-ga-66,Advance Auto Parts,Parts Shops and 4x4 Retailers,Austell,GA,"10156, Veterans Memorial Highway, Austell, GA, 30168",+1-770-739-1616,https://stores.advanceautoparts.com/ga/austell/10156-veterans-memorial-hwy-sw,"https://www.google.com/maps?q=33.798750,-84.642534","parts, retail",,OSM,way/1010551302,33.79875,-84.6425345
advance-auto-parts-ga-67,Advance Auto Parts,Parts Shops and 4x4 Retailers,Perry,GA,"Perry, GA, 31069",+1-478-988-8122,https://stores.advanceautoparts.com/ga/perry/1335-ball-st,"https://www.google.com/maps?q=32.464985,-83.738084","parts, retail",,OSM,way/1018742162,32.4649851,-83.7380835
advance-auto-parts-ga-68,Advance Auto Parts,Parts Shops and 4x4 Retailers,Bogart;Athens,GA,"4440, Atlanta Highway, Bogart;Athens, GA, 30622",+1-706-534-6508,https://stores.advanceautoparts.com/ga/bogart/4440-atlanta-hwy,"https://www.google.com/maps?q=33.940715,-83.488227","parts, retail",,OSM,way/1023299018,33.9407148,-83.4882273
advance-auto-parts-ga-69,Advance Auto Parts,Parts Shops and 4x4 Retailers,Washington,GA,"Washington, GA, 30673",+1-706-678-6230,https://stores.advanceautoparts.com/ga/washington/916-e-robert-toombs-ave,"https://www.google.com/maps?q=33.728455,-82.719533","parts, retail",,OSM,way/1034524487,33.7284551,-82.7195332
advance-auto-parts-ga-70,Advance Auto Parts,Parts Shops and 4x4 Retailers,Covington,GA,"5145, Highway 278 Northwest, Covington, GA, 30014",+1-770-385-1384,https://stores.advanceautoparts.com/ga/covington/5145-highway-278-nw,"https://www.google.com/maps?q=33.604033,-83.870816","parts, retail",,OSM,way/1041178427,33.6040328,-83.8708156
advance-auto-parts-ga-71,Advance Auto Parts,Parts Shops and 4x4 Retailers,Douglas,GA,"Douglas, GA, 31535",+1-912-384-8900,https://stores.advanceautoparts.com/ga/douglas/1504-peterson-ave-s,"https://www.google.com/maps?q=31.486643,-82.850630","parts, retail",,OSM,way/1051610150,31.486643,-82.8506305
advance-auto-parts-ga-72,Advance Auto Parts,Parts Shops and 4x4 Retailers,Locust Grove,GA,"Locust Grove, GA, 30248",+1-678-432-4441,https://stores.advanceautoparts.com/ga/locust-grove/4999-bill-gardner-pkwy,"https://www.google.com/maps?q=33.354405,-84.117160","parts, retail",,OSM,way/1056006370,33.354405,-84.1171598
advance-auto-parts-ga-73,Advance Auto Parts,Parts Shops and 4x4 Retailers,Bainbridge,GA,"Bainbridge, GA, 39819",+1-229-243-9379,https://stores.advanceautoparts.com/ga/bainbridge/1004-e-shotwell-st,"https://www.google.com/maps?q=30.903476,-84.562815","parts, retail",,OSM,way/1057791748,30.903476,-84.5628148
advance-auto-parts-ga-74,Advance Auto Parts,Parts Shops and 4x4 Retailers,Thomson,GA,"Thomson, GA, 30824",+1-706-597-0353,https://stores.advanceautoparts.com/ga/thomson/662-main-st,"https://www.google.com/maps?q=33.483146,-82.504687","parts, retail",,OSM,way/1086039878,33.4831456,-82.5046866
advance-auto-parts-ga-75,Advance Auto Parts,Parts Shops and 4x4 Retailers,Waynesboro,GA,"Waynesboro, GA, 30830",+1-706-554-1114,https://stores.advanceautoparts.com/ga/waynesboro/203-w-6th-st,"https://www.google.com/maps?q=33.089541,-82.017867","parts, retail",,OSM,way/1096780941,33.089541,-82.0178675
advance-auto-parts-ga-76,Advance Auto Parts,Parts Shops and 4x4 Retailers,Rincon,GA,"Rincon, GA, 31326",+1-912-826-2446,https://stores.advanceautoparts.com/ga/rincon/418-s-columbia-ave,"https://www.google.com/maps?q=32.275692,-81.228438","parts, retail",,OSM,way/1102785434,32.2756923,-81.2284377
advance-auto-parts-ga-77,Advance Auto Parts,Parts Shops and 4x4 Retailers,Vidalia,GA,"Vidalia, GA, 30474",+1-912-538-9445,https://stores.advanceautoparts.com/ga/vidalia/1605-e-1st-st,"https://www.google.com/maps?q=32.210822,-82.392261","parts, retail",,OSM,way/1118338175,32.2108222,-82.3922612
advance-auto-parts-ga-78,Advance Auto Parts,Parts Shops and 4x4 Retailers,Sylvester,GA,"East Frankling Street, Sylvester, GA, 31791",+1-229-776-3200,https://stores.advanceautoparts.com/ga/sylvester/502-e-franklin-st,"https://www.google.com/maps?q=31.529837,-83.830630","parts, retail",,OSM,way/1200821931,31.529837,-83.8306305
advance-auto-parts-ga-79,Advance Auto Parts,Parts Shops and 4x4 Retailers,Cordele,GA,"416, 16th Avenue East, Cordele, GA, 31015",+1-229-276-1116,https://stores.advanceautoparts.com/ga/cordele/416-e-16th-ave,"https://www.google.com/maps?q=31.963351,-83.776723","parts, retail",,OSM,way/1201728924,31.9633514,-83.7767227
advance-auto-parts-ga-80,Advance Auto Parts,Parts Shops and 4x4 Retailers,Saint Marys,GA,"Saint Marys, GA, 31558",+1-912-882-2707,https://stores.advanceautoparts.com/ga/saint-marys/2406-osborne-rd,"https://www.google.com/maps?q=30.749609,-81.569750","parts, retail",,OSM,way/1346433840,30.7496086,-81.56975
advance-auto-parts-ga-81,Advance Auto Parts,Parts Shops and 4x4 Retailers,Quitman,GA,"Quitman, GA, 31643",+1-229-263-8070,https://stores.advanceautoparts.com/ga/quitman/512-e-screven-st,"https://www.google.com/maps?q=30.785344,-83.555975","parts, retail",,OSM,way/1374816082,30.7853439,-83.5559751
advance-auto-parts-ga-82,Advance Auto Parts,Parts Shops and 4x4 Retailers,Tifton,GA,"Tifton, GA, 31794",+1-229-386-2718,https://stores.advanceautoparts.com/ga/tifton/616-7th-st-w,"https://www.google.com/maps?q=31.450520,-83.522650","parts, retail",,OSM,way/1374816107,31.4505199,-83.5226497
advance-auto-parts-ga-83,Advance Auto Parts,Parts Shops and 4x4 Retailers,Camilla,GA,"Camilla, GA, 31730",+1-229-336-0025,https://stores.advanceautoparts.com/ga/camilla/311-e-oakland-ave,"https://www.google.com/maps?q=31.232455,-84.198668","parts, retail",,OSM,way/1374820962,31.2324551,-84.1986677
advance-auto-parts-ga-84,Advance Auto Parts,Parts Shops and 4x4 Retailers,Swainsboro,GA,"Swainsboro, GA, 30401",+1-478-237-6151,https://stores.advanceautoparts.com/ga/swainsboro/325-s-main-st,"https://www.google.com/maps?q=32.591851,-82.329132","parts, retail",,OSM,way/1391026488,32.5918512,-82.3291321
advance-auto-parts-ga-85,Advance Auto Parts,Parts Shops and 4x4 Retailers,Blakely,GA,"Blakely, GA, 39823",+1-229-723-8545,https://stores.advanceautoparts.com/ga/blakely/12178-columbia-st,"https://www.google.com/maps?q=31.374927,-84.938918","parts, retail",,OSM,way/1409791194,31.3749266,-84.9389177
advance-auto-parts-ga-86,Advance Auto Parts,Parts Shops and 4x4 Retailers,Royston,GA,"Royston, GA, 30662",+1-706-245-6785,https://stores.advanceautoparts.com/ga/royston/840-franklin-springs-st,"https://www.google.com/maps?q=34.284964,-83.124184","parts, retail",,OSM,way/1462432870,34.2849643,-83.1241845
advance-auto-parts-ga-63,Advance Auto Parts,Parts Shops and 4x4 Retailers,,GA,"3330, South Cobb Drive, GA, 30080",+1-770-319-7443,https://stores.advanceautoparts.com/ga/smyrna/3330-s-cobb-dr-se,"https://www.google.com/maps?q=33.872309,-84.530140","parts, retail",,OSM,node/951313853,33.8723088,-84.53014
area-41-car-audio-specialists-ga,Area 41 Car Audio Specialists,Parts Shops and 4x4 Retailers,,GA,"2220, Cobb Parkway, GA",+1-678-594-0141,https://www.area41caraudio.com/,"https://www.google.com/maps?q=34.008144,-84.605803","parts, retail",,OSM,way/283272839,34.0081435,-84.6058029
auto-parts-outlet-ga,Auto Parts Outlet,Parts Shops and 4x4 Retailers,,GA,"1666, Roswell Road, GA",+1 404-346-4032,https://go-apo.com/atlanta%2C-ga-1,"https://www.google.com/maps?q=33.954752,-84.502938","parts, retail",,OSM,way/313316127,33.954752,-84.5029381
autozone-ga-7,AutoZone,Parts Shops and 4x4 Retailers,Marietta,GA,"3271, Canton Road, Marietta, GA, 30066",+1-770-528-9273,https://www.autozone.com/locations/ga/marietta/3271-canton-rd.html,"https://www.google.com/maps?q=34.030753,-84.528456","parts, retail",,OSM,way/311615044,34.030753,-84.5284564
autozone-ga-9,AutoZone,Parts Shops and 4x4 Retailers,Pooler,GA,"1005, US Hwy 80 W, Pooler, GA, 31322",+1-912-330-7270,https://www.autozone.com/locations/ga/pooler/1005-w-hwy-80.html,"https://www.google.com/maps?q=32.120565,-81.263739","parts, retail",,OSM,way/348652939,32.1205649,-81.263739
autozone-ga-11,AutoZone,Parts Shops and 4x4 Retailers,Fort Valley,GA,"432, N Camelia Blvd, Fort Valley, GA, 31030",+1-478-825-4413,https://www.autozone.com/locations/ga/fort-valley/400-bluebird-blvd.html,"https://www.google.com/maps?q=32.558753,-83.882628","parts, retail",,OSM,way/380451562,32.5587526,-83.8826276
autozone-ga-13,AutoZone,Parts Shops and 4x4 Retailers,Sugar Hill,GA,"5985, Cumming Highway North East, Sugar Hill, GA, 30518",+1 770 945 0003,https://www.autozone.com/locations/ga/sugar-hill/5985-cumming-hwy.html,"https://www.google.com/maps?q=34.120750,-84.077972","parts, retail",,OSM,way/387339522,34.1207499,-84.0779723
autozone-ga-15,AutoZone,Parts Shops and 4x4 Retailers,Jonesboro,GA,"1967, Jonesboro Road, Jonesboro, GA, 30253",+1-678-583-0663,https://www.autozone.com/locations/ga/mcdonough/1967-jonesboro-rd.html,"https://www.google.com/maps?q=33.463889,-84.220997","parts, retail",,OSM,way/401451548,33.4638893,-84.2209967
autozone-ga-16,AutoZone,Parts Shops and 4x4 Retailers,Villa Rica,GA,"658, West Bankhead Highway, Villa Rica, GA, 30180",+1-770-459-5011,https://www.autozone.com/locations/ga/villa-rica/658-w-bankhead-hwy.html,"https://www.google.com/maps?q=33.730088,-84.936642","parts, retail",,OSM,way/416806509,33.7300877,-84.9366419
autozone-ga-17,AutoZone,Parts Shops and 4x4 Retailers,Chatsworth,GA,"700, North 3rd Avenue, Chatsworth, GA, 30705",+1-706-517-5883,https://www.autozone.com/locations/ga/chatsworth/700-n-3rd-ave.html,"https://www.google.com/maps?q=34.774292,-84.769035","parts, retail",,OSM,way/452105740,34.7742923,-84.7690348
autozone-ga-18,AutoZone,Parts Shops and 4x4 Retailers,Acworth,GA,"3451, Cobb Parkway, Acworth, GA, 30101",+1-770-917-7881,https://www.autozone.com/locations/ga/acworth/3451-cobb-pkwy-nw.html,"https://www.google.com/maps?q=34.037539,-84.690402","parts, retail",,OSM,way/533894180,34.0375386,-84.6904023
autozone-ga-24,AutoZone,Parts Shops and 4x4 Retailers,Covington,GA,"3215, Elm Street Northeast, Covington, GA, 30014",+1-770-784-0244,https://www.autozone.com/locations/ga/covington/3215-elm-st-ne.html,"https://www.google.com/maps?q=33.604532,-83.855512","parts, retail",,OSM,way/778905912,33.6045323,-83.8555115
autozone-ga-25,AutoZone,Parts Shops and 4x4 Retailers,Woodstock,GA,"9870, Main Street, Woodstock, GA, 30188",+1-770-924-5911,https://www.autozone.com/locations/ga/woodstock/9870-main-st--150.html,"https://www.google.com/maps?q=34.082049,-84.520428","parts, retail",,OSM,way/817738125,34.0820489,-84.520428
autozone-ga-5,AutoZone,Parts Shops and 4x4 Retailers,,GA,"2769, Cobb Parkway, GA",+1-770-422-2552,https://www.autozone.com/locations/ga/kennesaw/2769-cobb-pkwy.html,"https://www.google.com/maps?q=34.020352,-84.623008","parts, retail",,OSM,way/283272561,34.0203523,-84.6230084
autozone-ga,AutoZone,Parts Shops and 4x4 Retailers,Athens,GA,"1925, Barnett Shoals Road, Athens, GA, 30605",,https://www.autozone.com/locations/ga/athens/1925-barnett-shoals-rd.html,"https://www.google.com/maps?q=33.923543,-83.339622","parts, retail",,OSM,node/9793837881,33.9235429,-83.3396215
autozone-ga-4,AutoZone,Parts Shops and 4x4 Retailers,Atlanta,GA,"1208, Eastland Road Southeast, Atlanta, GA, 30316",+1-404-371-9217,https://www.autozone.com/locations/ga/atlanta/1208-moreland-rd-se.html,"https://www.google.com/maps?q=33.719772,-84.348876","parts, retail",,OSM,way/272194123,33.7197721,-84.3488757
autozone-ga-6,AutoZone,Parts Shops and 4x4 Retailers,Fairburn,GA,"6621, Roosevelt Highway, Fairburn, GA",,https://www.autozone.com/locations/ga/union-city/6621-roosevelt-hwy.html,"https://www.google.com/maps?q=33.577992,-84.559437","parts, retail",,OSM,way/299043523,33.5779924,-84.5594368
autozone-ga-8,AutoZone,Parts Shops and 4x4 Retailers,Suwanee,GA,"971, Peachtree Industrial Boulevard, Suwanee, GA, 30024",,https://www.autozone.com/locations/ga/suwanee/971-peachtree-industrial-blvd.html,"https://www.google.com/maps?q=34.053876,-84.087742","parts, retail",,OSM,way/312069080,34.0538764,-84.0877421
autozone-ga-10,AutoZone,Parts Shops and 4x4 Retailers,Alpharetta,GA,"2957, Holcomb Bridge Road, Alpharetta, GA, 30022",,https://www.autozone.com/locations/ga/alpharetta/2957-holcomb-bridge-rd.html,"https://www.google.com/maps?q=33.988748,-84.274599","parts, retail",,OSM,way/352450812,33.9887479,-84.2745992
autozone-ga-12,AutoZone,Parts Shops and 4x4 Retailers,Canton,GA,"6760, Hickory Flat Highway, Canton, GA, 30115",,https://www.autozone.com/locations/ga/canton/6760-hickory-flat-hwy.html,"https://www.google.com/maps?q=34.171251,-84.414925","parts, retail",,OSM,way/387033762,34.1712506,-84.4149247
autozone-ga-14,AutoZone,Parts Shops and 4x4 Retailers,Oakwood,GA,"3434, Mundy Mill Road, Oakwood, GA, 30507",,https://www.autozone.com/locations/ga/gainesville/3434-mundy-mill-rd.html,"https://www.google.com/maps?q=34.222266,-83.862299","parts, retail",,OSM,way/388417761,34.2222658,-83.8622989
autozone-ga-19,AutoZone,Parts Shops and 4x4 Retailers,Columbus,GA,"6450, Flat Rock Road, Columbus, GA, 31907",,https://www.autozone.com/locations/ga/columbus/6450-flat-rock-rd.html,"https://www.google.com/maps?q=32.539121,-84.870843","parts, retail",,OSM,way/536110381,32.5391211,-84.8708429
autozone-ga-20,AutoZone,Parts Shops and 4x4 Retailers,Ringgold,GA,"6877, Nashville Street, Ringgold, GA",,https://www.autozone.com/locations/ga/ringgold/6877-nashville-st.html,"https://www.google.com/maps?q=34.918922,-85.123988","parts, retail",,OSM,way/684002664,34.9189218,-85.1239876
autozone-ga-21,AutoZone,Parts Shops and 4x4 Retailers,Thomasville,GA,"1016, East Jackson Street, Thomasville, GA, 31792",,https://www.autozone.com/locations/ga/thomasville/1016-e-jackson-st.html,"https://www.google.com/maps?q=30.847072,-83.965453","parts, retail",,OSM,way/696237272,30.8470724,-83.9654529
autozone-ga-22,AutoZone,Parts Shops and 4x4 Retailers,Gainesville,GA,"1145, Jesse Jewell Parkway, Gainesville, GA, 30501",,https://www.autozone.com/locations/ga/gainesville/1911-jesse-jewell-pkwy.html,"https://www.google.com/maps?q=34.313248,-83.796806","parts, retail",,OSM,way/727934885,34.3132477,-83.7968064
autozone-ga-23,AutoZone,Parts Shops and 4x4 Retailers,Jesup,GA,"712, North 1st Street, Jesup, GA, 31545",,https://www.autozone.com/locations/ga/jesup/712-n-1st-st.html,"https://www.google.com/maps?q=31.613335,-81.877678","parts, retail",,OSM,way/743736556,31.6133345,-81.8776782
autozone-ga-2,AutoZone,Parts Shops and 4x4 Retailers,Powder Springs,GA,"1060, Richard D Sailors Parkway, Powder Springs, GA, 30127",,https://www.autozone.com/locations/ga/powder-springs/1060-richard-sailors-pkwy.html,"https://www.google.com/maps?q=33.864534,-84.679248","parts, retail",,OSM,way/1010606117,33.864534,-84.6792484
autozone-ga-3,AutoZone,Parts Shops and 4x4 Retailers,Watkinsville,GA,"2231, Hog Mountain Road, Watkinsville, GA, 30677",,https://www.autozone.com/locations/ga/watkinsville/2231-hog-mountain-rd.html,"https://www.google.com/maps?q=33.871070,-83.442754","parts, retail",,OSM,way/1073221994,33.87107,-83.4427544
ben-s-auto-detail-center-ga,Ben's Auto Detail Center,Parts Shops and 4x4 Retailers,Grayson,GA,"2202, Loganville Highway, Grayson, GA, 30017",+1-678-754-4750,https://bensautodetailcenter.com/,"https://www.google.com/maps?q=33.892739,-83.951770","parts, retail",,OSM,node/5819772262,33.8927387,-83.9517697
bmc-pick-m-ups-ga,BMC-Pick'M Ups,Parts Shops and 4x4 Retailers,,GA,"2008, Canton Road, GA",+1-770-422-3338,,"https://www.google.com/maps?q=34.000190,-84.523731","parts, retail",,OSM,way/992848014,34.0001897,-84.5237314
custom-sun-control-ga,Custom Sun Control,Parts Shops and 4x4 Retailers,Marietta,GA,"986, Cobb Parkway South, Marietta, GA, 30060",+1-770-424-8225,https://www.customsuncontrol.com/,"https://www.google.com/maps?q=33.928715,-84.509011","parts, retail",,OSM,way/293501927,33.9287151,-84.5090114
cylinder-heads-engine-parts-ga,Cylinder Heads & Engine Parts,Parts Shops and 4x4 Retailers,Marietta,GA,"286, South Fairground Street Southeast, Marietta, GA, 30060",+1-770-499-2010,,"https://www.google.com/maps?q=33.945510,-84.535829","parts, retail",,OSM,node/4214790473,33.9455097,-84.5358286
drw-off-road-warehouse-ga,DRW Off Road Warehouse,Parts Shops and 4x4 Retailers,Marietta,GA,"911, Cobb Parkway North, Marietta, GA, 30062",+1-770-651-0266,https://www.offroadwarehouse.com,"https://www.google.com/maps?q=33.972758,-84.543027","parts, retail, 4x4",4x4 focused,OSM,way/335847729,33.9727577,-84.5430274
fleetpride-ga,FleetPride,Parts Shops and 4x4 Retailers,Valdosta,GA,"2050, Briarwood Road, Valdosta, GA, 31601",+1 229-219-0050,https://branches.fleetpride.com/ga/valdosta/truckparts-val-sc.html,"https://www.google.com/maps?q=30.826205,-83.322673","parts, retail",,OSM,node/12783387446,30.8262054,-83.3226732
fleetpride-ga-2,FleetPride,Parts Shops and 4x4 Retailers,,GA,GA,,https://branches.fleetpride.com/ga/forestpark/truckparts-atl.html,"https://www.google.com/maps?q=33.645804,-84.368069","parts, retail",,OSM,way/279198765,33.6458037,-84.3680686
horns-speed-and-paint-ga,Horns Speed and Paint,Parts Shops and 4x4 Retailers,Macon,GA,"7335, Cochran Field Road, Macon, GA, 31216",+1-478-788-9333,https://www.hornsspeedandpaint.com/,"https://www.google.com/maps?q=32.711273,-83.650189","parts, retail",,OSM,way/929100765,32.711273,-83.650189
interstate-batteries-ga,Interstate Batteries,Parts Shops and 4x4 Retailers,Athens,GA,"2036, South Milledge Avenue, Athens, GA, 30605",,https://www.interstatebatteriesathens.com/,"https://www.google.com/maps?q=33.922336,-83.379281","parts, retail",,OSM,way/293217340,33.922336,-83.3792806
james-auto-parts-ga,James Auto Parts,Parts Shops and 4x4 Retailers,Nashville,GA,"510, South Davis Street, Nashville, GA, 31639",+1-229-686-2041,http://www.napaonline.com/ga/nashville/james_auto_ga,"https://www.google.com/maps?q=31.201911,-83.250399","parts, retail",,OSM,way/366052581,31.201911,-83.2503994
jeephut-offroad-ga,JeepHut Offroad,Parts Shops and 4x4 Retailers,Jasper,GA,"172, Confederate Avenue, Jasper, GA, 30143",+1-706-692-5488,https://thejeephut.com/,"https://www.google.com/maps?q=34.472032,-84.457828","parts, retail, jeep, 4x4",4x4 focused,OSM,way/311345185,34.4720325,-84.4578279
mavis-tires-brakes-ga,Mavis Tires & Brakes,Parts Shops and 4x4 Retailers,Midland,GA,"7049, Ruffie Way, Midland, GA, 31820",+1-706-330-2000,https://www.mavistire.com/,"https://www.google.com/maps?q=32.538515,-84.867144","parts, retail",,OSM,way/1000939187,32.5385151,-84.8671442
mid-georgia-synthetic-ga,Mid Georgia Synthetic,Parts Shops and 4x4 Retailers,Warner Robins,GA,"308, Autumn Woods Drive, Warner Robins, GA, 31088",+1-478-954-5896,https://oilanswers.net/,"https://www.google.com/maps?q=32.557176,-83.703022","parts, retail",,OSM,node/11843747961,32.5571763,-83.7030221
napa-auto-care-ga,Napa Auto Care,Parts Shops and 4x4 Retailers,Villa Rica,GA,"875, South Carroll Road, Villa Rica, GA, 30180",+1-770-456-4140,https://www.napaonline.com/en/autocare/?facilityId=307714&sdref=modal,"https://www.google.com/maps?q=33.715958,-84.935871","parts, retail",,OSM,way/1010441533,33.715958,-84.935871
napa-auto-parts-ga,NAPA Auto Parts,Parts Shops and 4x4 Retailers,Millen,GA,"112, North Gray Street, Millen, GA, 30442",+1-478-982-5611,https://www.napaonline.com/en/ga/millen/store/22613,"https://www.google.com/maps?q=32.802752,-81.941021","parts, retail",,OSM,node/11760042969,32.8027518,-81.9410213
napa-auto-parts-ga-2,NAPA Auto Parts,Parts Shops and 4x4 Retailers,Augusta,GA,"1337, Reynolds Street, Augusta, GA, 30901",+1-706-724-8247,https://www.napaonline.com/en/GA/Augusta/store/28445,"https://www.google.com/maps?q=33.480705,-81.976122","parts, retail",,OSM,node/13482843711,33.4807046,-81.9761215
napa-auto-parts-ga-5,NAPA Auto Parts,Parts Shops and 4x4 Retailers,Marietta,GA,"1385, East Cobb Drive, Marietta, GA, 30068",+1-770-578-4822,http://www.mapaonline.com/,"https://www.google.com/maps?q=33.982054,-84.425513","parts, retail",,OSM,way/106469440,33.9820539,-84.4255132
napa-auto-parts-ga-6,NAPA Auto Parts,Parts Shops and 4x4 Retailers,Alpharetta,GA,"1535, Mansell Road, Alpharetta, GA, 30009",+1-770-993-9804,http://www.napaonline.com/ga/alpharetta/genuine-parts,"https://www.google.com/maps?q=34.040111,-84.323380","parts, retail",,OSM,way/333002419,34.0401107,-84.3233805
napa-auto-parts-ga-7,NAPA Auto Parts,Parts Shops and 4x4 Retailers,Hahira,GA,"962, GA 122, Hahira, GA, 31632",+1-229-794-1900,http://www.napaonline.com/ga/hahira,"https://www.google.com/maps?q=30.991736,-83.384161","parts, retail",,OSM,way/348070180,30.9917364,-83.3841612
napa-auto-parts-ga-8,NAPA Auto Parts,Parts Shops and 4x4 Retailers,Cartersville,GA,"410, North Tennessee Street, Cartersville, GA, 30120",+1-770-382-2772,https://www.napaonline.com/en/ga/cartersville/store/28171,"https://www.google.com/maps?q=34.174959,-84.793772","parts, retail",,OSM,way/474286498,34.1749594,-84.7937716
napa-auto-parts-ga-4,NAPA Auto Parts,Parts Shops and 4x4 Retailers,Bainbridge,GA,"1602, East Shotwell Street, Bainbridge, GA, 39819",+1 229 246 1611,https://www.napaonline.com/en/ga/bainbridge/store/25055,"https://www.google.com/maps?q=30.902442,-84.550169","parts, retail",,OSM,way/1057817880,30.9024422,-84.5501694
napa-auto-parts-ga-3,NAPA Auto Parts,Parts Shops and 4x4 Retailers,,GA,"10029, Highway 92, GA",+1 470-666-2887,https://www.napaonline.com/en/ga/woodstock/store/804376,"https://www.google.com/maps?q=34.086987,-84.520622","parts, retail",,OSM,node/7636774077,34.0869869,-84.5206216
o-reilly-auto-parts-ga-4,O'Reilly Auto Parts,Parts Shops and 4x4 Retailers,Marietta,GA,"2125, Roswell Road, Marietta, GA, 30062",+1-678-981-7788,https://locations.oreillyauto.com/ga/marietta/autoparts-5016.html,"https://www.google.com/maps?q=33.967133,-84.491760","parts, retail",,OSM,node/6345433569,33.9671328,-84.4917601
o-reilly-auto-parts-ga-12,O'Reilly Auto Parts,Parts Shops and 4x4 Retailers,Adel,GA,"500, West 4th Street, Adel, GA, 31620",+1-229-896-2291,https://locations.oreillyauto.com/ga/adel/autoparts-4006.html,"https://www.google.com/maps?q=31.135922,-83.429261","parts, retail",,OSM,way/348407012,31.135922,-83.4292607
o-reilly-auto-parts-ga-13,O'Reilly Auto Parts,Parts Shops and 4x4 Retailers,Villa Rica,GA,"513, West Bankhead Highway, Villa Rica, GA, 30180",+1-678-840-8472,https://locations.oreillyauto.com/ga/villarica/autoparts-2142.html,"https://www.google.com/maps?q=33.732095,-84.930323","parts, retail",,OSM,way/416797825,33.7320947,-84.9303234
o-reilly-auto-parts-ga-14,O'Reilly Auto Parts,Parts Shops and 4x4 Retailers,Ashburn,GA,"445, East Washington Avenue, Ashburn, GA, 31714",+1-229-567-0409,https://locations.oreillyauto.com/ga/ashburn/autoparts-1657.html,"https://www.google.com/maps?q=31.708947,-83.646489","parts, retail",,OSM,way/430427522,31.7089474,-83.646489
o-reilly-auto-parts-ga-15,O'Reilly Auto Parts,Parts Shops and 4x4 Retailers,Jasper,GA,"15, Interstate Drive North, Jasper, GA, 30143",+1-706-301-9056,https://locations.oreillyauto.com/ga/jasper/autoparts-1765.html,"https://www.google.com/maps?q=34.475193,-84.466189","parts, retail",,OSM,way/488164845,34.4751927,-84.4661893
o-reilly-auto-parts-ga-17,O'Reilly Auto Parts,Parts Shops and 4x4 Retailers,Savannah,GA,"4222, Waters Avenue, Savannah, GA, 31404",+1-912-692-0373,https://locations.oreillyauto.com/ga/savannah/autoparts-1711.html,"https://www.google.com/maps?q=32.036597,-81.089369","parts, retail",,OSM,way/638244486,32.0365967,-81.0893689
o-reilly-auto-parts-ga-22,O'Reilly Auto Parts,Parts Shops and 4x4 Retailers,Columbus,GA,"7812, Veterans Parkway, Columbus, GA, 31909",+1-706-649-2583,https://locations.oreillyauto.com/ga/columbus/autoparts-4399.html,"https://www.google.com/maps?q=32.560488,-84.938283","parts, retail",,OSM,way/958407891,32.5604877,-84.9382826
o-reilly-auto-parts-ga-6,O'Reilly Auto Parts,Parts Shops and 4x4 Retailers,Millen,GA,"516, East Winthrope Avenue, Millen, GA, 30442",+1-478-401-3217,https://locations.oreillyauto.com/ga/millen/autoparts-5400.html,"https://www.google.com/maps?q=32.803497,-81.940985","parts, retail",,OSM,way/1082739357,32.8034969,-81.9409854
o-reilly-auto-parts-ga-8,O'Reilly Auto Parts,Parts Shops and 4x4 Retailers,Covington,GA,"3301, Highway 278 Northeast, Covington, GA, 30014",+1-678-625-0557,https://locations.oreillyauto.com/ga/covington/autoparts-1349.html,"https://www.google.com/maps?q=33.603567,-83.853710","parts, retail",,OSM,way/1121091714,33.6035671,-83.8537101
o-reilly-auto-parts-ga,O'Reilly Auto Parts,Parts Shops and 4x4 Retailers,,GA,"1355, Roswell Road, GA",+1-678-915-2318,https://locations.oreillyauto.com/ga/marietta/autoparts-6657.html,"https://www.google.com/maps?q=33.952293,-84.512108","parts, retail",,OSM,node/13451578961,33.9522929,-84.5121084
o-reilly-auto-parts-ga-2,O'Reilly Auto Parts,Parts Shops and 4x4 Retailers,Kennesaw,GA,"4307, Wade Green Road, Kennesaw, GA, 30144",,https://locations.oreillyauto.com/ga/kennesaw/autoparts-4460.html,"https://www.google.com/maps?q=34.058114,-84.593404","parts, retail",,OSM,node/5006000043,34.0581144,-84.5934037
o-reilly-auto-parts-ga-3,O'Reilly Auto Parts,Parts Shops and 4x4 Retailers,Reidsville,GA,"216, West Brazell Street, Reidsville, GA, 30453",,https://locations.oreillyauto.com/ga/reidsville/autoparts-5164.html,"https://www.google.com/maps?q=32.081513,-82.125465","parts, retail",,OSM,node/5288446478,32.0815129,-82.1254649
o-reilly-auto-parts-ga-10,O'Reilly Auto Parts,Parts Shops and 4x4 Retailers,Austell,GA,"10001, Veterans Memorial Highway, Austell, GA, 30168",,https://locations.oreillyauto.com/ga/austell/autoparts-1351.html,"https://www.google.com/maps?q=33.804499,-84.636439","parts, retail",,OSM,way/243606403,33.8044986,-84.6364387
o-reilly-auto-parts-ga-11,O'Reilly Auto Parts,Parts Shops and 4x4 Retailers,Athens,GA,"4405, Atlanta Highway, Athens, GA, 30606",,https://locations.oreillyauto.com/ga/bogart/autoparts-1916.html,"https://www.google.com/maps?q=33.939960,-83.488359","parts, retail",,OSM,way/303239911,33.93996,-83.4883585
o-reilly-auto-parts-ga-16,O'Reilly Auto Parts,Parts Shops and 4x4 Retailers,Donalsonville,GA,"West 3rd Street, Donalsonville, GA, 39845",,https://locations.oreillyauto.com/ga/donalsonville/autoparts-1977.html,"https://www.google.com/maps?q=31.041512,-84.888768","parts, retail",,OSM,way/560222190,31.041512,-84.8887681
o-reilly-auto-parts-ga-18,O'Reilly Auto Parts,Parts Shops and 4x4 Retailers,Fort Oglethorpe,GA,"296, Van Cleve Street, Fort Oglethorpe, GA",,https://locations.oreillyauto.com/ga/fortoglethorpe/autoparts-957.html,"https://www.google.com/maps?q=34.954719,-85.250124","parts, retail",,OSM,way/693445534,34.9547192,-85.2501242
o-reilly-auto-parts-ga-19,O'Reilly Auto Parts,Parts Shops and 4x4 Retailers,Thomasville,GA,"917, East Jackson Street, Thomasville, GA, 31792",,https://locations.oreillyauto.com/ga/thomasville/autoparts-1458.html,"https://www.google.com/maps?q=30.846881,-83.967582","parts, retail",,OSM,way/696237274,30.8468805,-83.9675817
o-reilly-auto-parts-ga-20,O'Reilly Auto Parts,Parts Shops and 4x4 Retailers,Jesup,GA,"901, North 1st Street, Jesup, GA, 31545",,https://locations.oreillyauto.com/ga/jesup/autoparts-1456.html,"https://www.google.com/maps?q=31.614842,-81.875809","parts, retail",,OSM,way/743736544,31.6148415,-81.8758092
o-reilly-auto-parts-ga-21,O'Reilly Auto Parts,Parts Shops and 4x4 Retailers,Warner Robins,GA,"116, South Houston Lake Road, Warner Robins, GA, 31088",,https://locations.oreillyauto.com/ga/warnerrobins/autoparts-1435.html,"https://www.google.com/maps?q=32.617396,-83.681639","parts, retail",,OSM,way/929866144,32.6173957,-83.6816387
o-reilly-auto-parts-ga-5,O'Reilly Auto Parts,Parts Shops and 4x4 Retailers,Clayton,GA,"121, Highway 441 South, Clayton, GA, 30525",,https://locations.oreillyauto.com/ga/clayton/autoparts-5008.html,"https://www.google.com/maps?q=34.876289,-83.396969","parts, retail",,OSM,way/1066921644,34.8762888,-83.3969693
o-reilly-auto-parts-ga-7,O'Reilly Auto Parts,Parts Shops and 4x4 Retailers,Commerce,GA,"2310, Homer Road, Commerce, GA, 30529",+17063368141,,"https://www.google.com/maps?q=34.236780,-83.453165","parts, retail",,OSM,way/1094531001,34.23678,-83.453165
o-reilly-auto-parts-ga-9,O'Reilly Auto Parts,Parts Shops and 4x4 Retailers,Fort Valley,GA,"401, Vineville Street, Fort Valley, GA, 31030",+1-478-825-1936,,"https://www.google.com/maps?q=32.558779,-83.887871","parts, retail",,OSM,way/1390030665,32.5587795,-83.8878712
paint-masters-ga,Paint Masters,Parts Shops and 4x4 Retailers,,GA,GA,+1-404-534-2264,https://paintmastersga.com,"https://www.google.com/maps?q=33.774413,-84.280068","parts, retail",,OSM,way/51298419,33.774413,-84.280068
parts-authority-ga,Parts Authority,Parts Shops and 4x4 Retailers,,GA,"9880, Main Street, GA",+1 (770) 591-0898,https://partsauthority.com/locations/georgia/nearby-woodstock-aftermarket-automotive-parts,"https://www.google.com/maps?q=34.080797,-84.520751","parts, retail",,OSM,node/13613546713,34.0807973,-84.5207512
peacock-s-auto-salvage-ga,Peacock's Auto Salvage,Parts Shops and 4x4 Retailers,Macon,GA,"919, Highway 49, Macon, GA, 31211",+1-478-743-2484,https://peacocksautosalvage.net/,"https://www.google.com/maps?q=32.918292,-83.514987","parts, retail, salvage",,OSM,node/9536017203,32.9182918,-83.5149869
slack-auto-parts-ga,Slack Auto Parts,Parts Shops and 4x4 Retailers,,GA,"6802, Hwy 53 East, GA, 30534",+1-706-216-5222,http://slackautoparts.com,"https://www.google.com/maps?q=34.359822,-84.033441","parts, retail",,OSM,way/389931691,34.3598223,-84.0334409
total-offroad-more-ga,Total Offroad & More,Parts Shops and 4x4 Retailers,Kennesaw,GA,"2555, Cobb Place Lane Northwest, Kennesaw, GA, 30144",+1-770-427-9840,https://totaloffroad.com/total-offroad-kennesaw-ga-30144,"https://www.google.com/maps?q=34.012619,-84.573788","parts, retail, 4x4",4x4 focused,OSM,way/243872734,34.0126192,-84.5737881
turbo-diesel-electric-systems-ga,Turbo Diesel & Electric Systems,Parts Shops and 4x4 Retailers,,GA,"4923, Canton Road Northeast, GA",+1-404-361-2222,http://tdesystems.com/,"https://www.google.com/maps?q=34.070798,-84.522455","parts, retail",,OSM,way/627209081,34.0707978,-84.5224549
velazquez-tires-ga,Velazquez Tires,Parts Shops and 4x4 Retailers,Marietta,GA,"324, South Fairground Street Southeast, Marietta, GA, 30060",+1-770-672-6850,,"https://www.google.com/maps?q=33.944587,-84.535615","parts, retail",,OSM,way/288255036,33.9445866,-84.5356149
kendrick-radiator-automotive-ga,Kendrick Radiator & Automotive,Radiator and Cooling Specialists,Atlanta,GA,"2486, Moreland Avenue Southeast, Atlanta, GA, 30315",+1-404-454-4929,https://kendrickradiator.com/,"https://www.google.com/maps?q=33.686169,-84.348245","radiator, cooling",,OSM,node/4561332738,33.6861685,-84.3482447
2-keys-custom-paint-body-ga,2 Keys Custom Paint & Body,Repair Shops (XJ/Jeep-Friendly),,GA,GA,+1-706-267-1525,,"https://www.google.com/maps?q=33.481310,-81.980479","repair, mechanic",,OSM,node/13505733479,33.4813096,-81.980479
24-hr-tire-shop-roadside-assistance-ga,24 Hr Tire Shop/Roadside Assistance,Repair Shops (XJ/Jeep-Friendly),Smyrna,GA,"1075, Windy Hill Road Southeast, Smyrna, GA, 30080",+1-678-403-8005,https://www.24hoursroadassistance.com/,"https://www.google.com/maps?q=33.894699,-84.521479","repair, mechanic",,OSM,way/264237834,33.894699,-84.5214792
875-performance-tuning-ga,875 Performance Tuning,Repair Shops (XJ/Jeep-Friendly),,GA,"3268, Fairview Drive, GA",+1 470-888-0875,,"https://www.google.com/maps?q=34.030590,-84.526233","repair, mechanic",,OSM,way/992871965,34.03059,-84.5262325
96-tire-collision-ga,96 Tire & Collision,Repair Shops (XJ/Jeep-Friendly),Jeffersonville,GA,"5610 SR 96, Jeffersonville, GA, 31044",+1-478-945-2458,https://96-tire-collision.edan.io,"https://www.google.com/maps?q=32.616572,-83.372454","repair, mechanic",,OSM,node/11011560149,32.6165716,-83.3724535
a-a-auto-care-ga,A & A Auto Care,Repair Shops (XJ/Jeep-Friendly),,GA,"2610, Dobbs Drive, GA",+1-770-628-1246,https://autoservicekennesaw.com/,"https://www.google.com/maps?q=34.017094,-84.618899","repair, mechanic",,OSM,way/283272408,34.0170945,-84.6188987
a-to-z-auto-service-ga,A to Z Auto Service,Repair Shops (XJ/Jeep-Friendly),,GA,"831, Pine Manor Northeast, GA",+1 517-703-7737,,"https://www.google.com/maps?q=34.031226,-84.526121","repair, mechanic",,OSM,node/10823300563,34.0312262,-84.5261209
a-r-auto-and-emission-llc-ga,A&R Auto and Emission LLC,Repair Shops (XJ/Jeep-Friendly),Stonecrest,GA,"3207, Garden Glade Lane, Stonecrest, GA, 30038",+1-678-598-1082,https://anrautoandemissions.com/services,"https://www.google.com/maps?q=33.685516,-84.051558","repair, mechanic",,OSM,node/12695787369,33.6855162,-84.0515579
aaa-east-cobb-service-center-ga,AAA East Cobb Service Center,Repair Shops (XJ/Jeep-Friendly),Marietta,GA,"1197, Johnson Ferry Road Northeast, Marietta, GA, 30068",+1-770-565-5700,https://autoclubsouth.aaa.com/Branches/Branch.aspx?branchid=053,"https://www.google.com/maps?q=33.977503,-84.417364","repair, mechanic",,OSM,way/109023751,33.9775034,-84.4173642
aaa-toco-hills-car-care-plus-ga,AAA Toco Hills Car Care Plus,Repair Shops (XJ/Jeep-Friendly),,GA,"2161, Lavista Road Northeast, GA",+1 404-235-6754,https://locator.acg.aaa.com/ga/atlanta/aaa-toco-hills-car-care-plus,"https://www.google.com/maps?q=33.816962,-84.314494","repair, mechanic",,OSM,node/2422243159,33.8169618,-84.3144945
aamco-transmission-ga,AAMCO Transmission,Repair Shops (XJ/Jeep-Friendly),Marietta,GA,"1702, Cobb Parkway South, Marietta, GA, 30060",+1-678-383-4715,https://www.aamcomarietta-cobbparkway.com/,"https://www.google.com/maps?q=33.911121,-84.495836","repair, mechanic",,OSM,way/264241451,33.9111213,-84.495836
aamco-transmissions-total-car-care-ga,AAMCO Transmissions & Total Car Care,Repair Shops (XJ/Jeep-Friendly),,GA,"9880, Main Street, GA",+1 (770) 516-7110,https://www.aamcowoodstock-mainst.com/,"https://www.google.com/maps?q=34.080454,-84.520929","repair, mechanic",,OSM,node/13613546712,34.080454,-84.5209291
abra-auto-body-glass-ga,ABRA Auto Body & Glass,Repair Shops (XJ/Jeep-Friendly),Marietta,GA,"1770, Cobb Parkway South, Marietta, GA, 30060",+1-770-956-1134,https://www.abraauto.com/abra-auto-location/auto-body-and-glass-repair-shop-marietta-cobb-parkway-ga/,"https://www.google.com/maps?q=33.909246,-84.494039","repair, mechanic",,OSM,way/264240294,33.9092464,-84.494039
accurate-care-automotive-ga,Accurate Care Automotive,Repair Shops (XJ/Jeep-Friendly),,GA,"3143, Canton Road, GA",+1 770-423-9595,https://www.accuratecareauto.com/,"https://www.google.com/maps?q=34.028005,-84.528640","repair, mechanic",,OSM,way/311615033,34.0280046,-84.5286402
advance-muffler-technology-ga,Advance Muffler Technology,Repair Shops (XJ/Jeep-Friendly),Covington,GA,"5109, Piper Street Northwest, Covington, GA, 30014",+1-770-787-0083,https://www.advancemufflertechnology.com/,"https://www.google.com/maps?q=33.604871,-83.869409","repair, mechanic",,OSM,way/1130734636,33.6048708,-83.8694086
alex-auto-inc-ga,Alex Auto Inc.,Repair Shops (XJ/Jeep-Friendly),Roswell,GA,"11341, Alpharetta Highway, Roswell, GA, 30076",+1-770-416-8075,https://www.alexautoinc.com,"https://www.google.com/maps?q=34.056729,-84.327542","repair, mechanic",,OSM,way/389337809,34.0567286,-84.3275424
alex-car-care-ga,Alex Car Care,Repair Shops (XJ/Jeep-Friendly),Clarkston,GA,"4130, East Ponce de Leon Avenue, Clarkston, GA, 30021",+1-404-499-0024,,"https://www.google.com/maps?q=33.808304,-84.241308","repair, mechanic",,OSM,node/9951786912,33.8083036,-84.2413078
alfa-collision-center-ga,Alfa Collision Center,Repair Shops (XJ/Jeep-Friendly),Roswell,GA,"11335, Alpharetta Highway, Roswell, GA, 30076",+1-770-619-4000,http://www.alfacollision.com,"https://www.google.com/maps?q=34.056366,-84.327689","repair, mechanic",,OSM,way/389190010,34.0563662,-84.3276891
all-pro-transmission-exchange-ga,All Pro Transmission Exchange,Repair Shops (XJ/Jeep-Friendly),Smyrna,GA,"3470, Lake Drive Southeast, Smyrna, GA, 30082",+1 770 434 5579,https://www.allprotransmission.com/,"https://www.google.com/maps?q=33.869625,-84.530309","repair, mechanic",,OSM,way/1022020110,33.8696245,-84.5303085
all-pro-automotive-ga,All-Pro Automotive,Repair Shops (XJ/Jeep-Friendly),,GA,"2517, Cobb Parkway, GA",+1-770-590-9909,https://allproautokennesaw.com/,"https://www.google.com/maps?q=34.015654,-84.616460","repair, mechanic",,OSM,way/283272404,34.0156543,-84.61646
alpha-omega-automotive-ga,Alpha & Omega Automotive,Repair Shops (XJ/Jeep-Friendly),,GA,"4035, Canton Road Northeast, GA",+1 770-928-0006,https://www.alpha-omega-auto.com/Marietta-auto-service-center.html,"https://www.google.com/maps?q=34.048562,-84.528340","repair, mechanic",,OSM,way/1357880875,34.0485623,-84.5283402
alpinespeed-ga,Alpinespeed,Repair Shops (XJ/Jeep-Friendly),Marietta,GA,"811, Chance Road, Marietta, GA, 30066-4903",+1-678-678-4078,,"https://www.google.com/maps?q=34.026537,-84.527196","repair, mechanic",,OSM,way/330741948,34.0265371,-84.5271956
american-lube-fast-ga,American Lube Fast,Repair Shops (XJ/Jeep-Friendly),Tifton,GA,"1801, Tift Avenue North, Tifton, GA, 31794",+1 229-382-7371,https://lubefast.com/oil-change-locations-alabama-florida-georgia-mississippi/oil-change-locations-georgia/oil-change-tifton-ga-oil-change-coupons-tifton-ga/,"https://www.google.com/maps?q=31.470934,-83.502741","repair, mechanic",,OSM,way/865562338,31.4709343,-83.502741
angel-s-automotive-ga,Angel's Automotive,Repair Shops (XJ/Jeep-Friendly),,GA,"2932, Canton Road, GA",+1 470-308-3258,https://angelsautomotive.org/,"https://www.google.com/maps?q=34.021527,-84.527464","repair, mechanic",,OSM,node/11189531413,34.0215269,-84.5274643
anthem-automotive-ga,Anthem Automotive,Repair Shops (XJ/Jeep-Friendly),Atlanta,GA,"2163, Piedmont Road Northeast, Atlanta, GA, 30324",+1-404-793-7503,www.ANTHEMAUTO.com,"https://www.google.com/maps?q=33.816206,-84.366219","repair, mechanic",,OSM,way/292390582,33.816206,-84.3662193
anything-automotive-and-transmission-ga,Anything automotive and Transmission,Repair Shops (XJ/Jeep-Friendly),Braselton,GA,"980, Georgia 124, Braselton, GA, 30517",+1-706-975-7013,,"https://www.google.com/maps?q=34.094444,-83.808782","repair, mechanic",,OSM,node/9683199445,34.0944442,-83.808782
arnold-s-automotive-ga,Arnold's Automotive,Repair Shops (XJ/Jeep-Friendly),,GA,"64, Shawnee Trail Southeast, GA",+1-770-578-8447,https://www.arnoldsautomotiverepair.com/,"https://www.google.com/maps?q=33.948951,-84.493870","repair, mechanic",,OSM,way/932982180,33.9489515,-84.49387
atlanta-luxury-window-tinting-ga,Atlanta Luxury Window Tinting,Repair Shops (XJ/Jeep-Friendly),Atlanta,GA,"157, North Avenue Northeast, Atlanta, GA, 30308",+1-678-245-0748,https://www.atlantaluxurywindowtinting.com/,"https://www.google.com/maps?q=33.771010,-84.382137","repair, mechanic",,OSM,node/12401065991,33.7710101,-84.3821367
atlanta-pneus-tire-repair-ga,Atlanta Pneus Tire Repair,Repair Shops (XJ/Jeep-Friendly),,GA,"1798, Lower Roswell Road Southeast, GA",+1-470-435-2216,https://atlantatires.us/,"https://www.google.com/maps?q=33.951648,-84.499711","repair, mechanic",,OSM,way/1174904597,33.9516477,-84.4997106
auto-collision-repair-ga,Auto Collision Repair,Repair Shops (XJ/Jeep-Friendly),Lawrenceville,GA,"334, South Clayton Street, Lawrenceville, GA, 30046",+1-770-513-9080,,"https://www.google.com/maps?q=33.953863,-83.988428","repair, mechanic",,OSM,way/1032444517,33.9538627,-83.9884283
auto-serv-ga,Auto-Serv,Repair Shops (XJ/Jeep-Friendly),,GA,"3003, Johnson Ferry Road Northeast, GA",+1 770-518-4921,https://autoservmarietta.com/,"https://www.google.com/maps?q=34.022394,-84.426929","repair, mechanic",,OSM,way/930753880,34.0223942,-84.4269285
autocool-atlanta-ga,Autocool Atlanta,Repair Shops (XJ/Jeep-Friendly),smyrna,GA,"1680, spring rd se, smyrna, GA, 30080",+1-770-433-2665,https://www.autocoolatlanta.com/,"https://www.google.com/maps?q=33.881965,-84.504282","repair, mechanic",,OSM,way/286835234,33.8819645,-84.5042817
autonation-chrysler-dodge-jeep-ram-ga,AutoNation Chrysler Dodge Jeep Ram,Repair Shops (XJ/Jeep-Friendly),,GA,GA,+1 844-962-2283,https://www.autonation.com/dealers/chrysler-dodge-jeep-ram-fiat-north-columbus,"https://www.google.com/maps?q=32.551540,-84.942562","repair, mechanic, jeep",Jeep mentioned,OSM,way/958086011,32.5515404,-84.9425616
b-and-r-automotive-repair-ga,B and R Automotive Repair,Repair Shops (XJ/Jeep-Friendly),Cartersville,GA,"1575, US 411, Cartersville, GA, 30121",+1-770-334-2695,https://bandrautomotiverepair.com/,"https://www.google.com/maps?q=34.217285,-84.793176","repair, mechanic",,OSM,node/9937700250,34.2172847,-84.7931756
bagwell-and-mathis-tire-ga,Bagwell and Mathis Tire,Repair Shops (XJ/Jeep-Friendly),Cumming,GA,"107, Pirkle Ferry Road, Cumming, GA, 30040",+1-770-887-2351,https://bagwellmathis.com/,"https://www.google.com/maps?q=34.206559,-84.136692","repair, mechanic",,OSM,way/387512631,34.2065591,-84.1366919
benz-and-beamer-auto-solutions-ga,Benz And Beamer Auto Solutions,Repair Shops (XJ/Jeep-Friendly),,GA,"1288, Roswell Road, GA",+1-678-560-9870,http://www.benzandbeamerautorepair.com/,"https://www.google.com/maps?q=33.950502,-84.514634","repair, mechanic",,OSM,node/13457124282,33.950502,-84.5146335
bimmer-s-service-center-ga,Bimmer's Service Center,Repair Shops (XJ/Jeep-Friendly),,GA,"2486, South Main Street, GA",,http://www.bimmersservicecenter.com/,"https://www.google.com/maps?q=34.014516,-84.608722","repair, mechanic",,OSM,node/12089657952,34.0145163,-84.6087221
blue-ridge-automotive-ga,Blue Ridge Automotive,Repair Shops (XJ/Jeep-Friendly),Chamblee,GA,"3733, North Peachtree Road, Chamblee, GA, 30341",+1-770-216-8474,https://blueridgeauto.co/,"https://www.google.com/maps?q=33.901326,-84.293833","repair, mechanic",,OSM,node/10242052055,33.9013261,-84.2938331
blue-ridge-automotive-european-domestic-decatur-ga,Blue Ridge Automotive - European & Domestic - Decatur,Repair Shops (XJ/Jeep-Friendly),Decatur,GA,"803, Church Street, Decatur, GA, 30030",(404) 549-9424,https://blueridgeauto.co/,"https://www.google.com/maps?q=33.779164,-84.294383","repair, mechanic",,OSM,node/567189386,33.779164,-84.2943834
bowes-automotive-repair-ga,Bowes Automotive Repair,Repair Shops (XJ/Jeep-Friendly),,GA,"1941, Canton Road Northeast, GA",+1-770-794-6044,http://www.boweseuropeanandimport.com/,"https://www.google.com/maps?q=33.996155,-84.524982","repair, mechanic",,OSM,way/982208522,33.9961553,-84.5249822
brake-stop-auto-experts-ga,Brake Stop & Auto Experts,Repair Shops (XJ/Jeep-Friendly),Decatur,GA,"5343, Covington Highway, Decatur, GA, 30035",+1-770-322-3771,http://brakestopandautoexperts.com,"https://www.google.com/maps?q=33.731774,-84.196363","repair, mechanic",,OSM,node/4531887289,33.7317739,-84.1963628
brookwood-tire-auto-ga,Brookwood Tire & Auto,Repair Shops (XJ/Jeep-Friendly),Lilburn,GA,"3099, Five Forks Trickum Road Southwest, Lilburn, GA, 30047",+1-770-985-6288,http://www.brookwoodtireauto.com,"https://www.google.com/maps?q=33.884348,-84.062657","repair, mechanic",,OSM,node/5988980980,33.884348,-84.062657
brothers-auto-repair-ga,Brothers Auto Repair,Repair Shops (XJ/Jeep-Friendly),Covington,GA,"5115, Highway 278 Northwest, Covington, GA, 30014",+1-470-444-1063,https://brothersautorepair.business.site/,"https://www.google.com/maps?q=33.604938,-83.869601","repair, mechanic",,OSM,way/1130734637,33.6049384,-83.869601
buckhead-collision-ga,Buckhead Collision,Repair Shops (XJ/Jeep-Friendly),,GA,"1900, Piedmont Circle Northeast, GA",,http://www.buckheadcollision.com/,"https://www.google.com/maps?q=33.808647,-84.366851","repair, mechanic",,OSM,node/13606920392,33.8086473,-84.3668513
burneys-automotive-ga,Burneys Automotive,Repair Shops (XJ/Jeep-Friendly),Bainbridge,GA,"305, Mt Zion Church Road, Bainbridge, GA, 39817",+1-229-246-3854,http://burneysautomotive.com,"https://www.google.com/maps?q=30.984856,-84.611135","repair, mechanic",,OSM,way/434902769,30.984856,-84.6111353
butler-automotive-ga,Butler Automotive,Repair Shops (XJ/Jeep-Friendly),Augusta,GA,"1401, Reynolds Street, Augusta, GA, 30901",+1-706-724-7281,https://butlerautomotive.com/locations/auto-repair-augusta-ga/,"https://www.google.com/maps?q=33.481328,-81.977930","repair, mechanic",,OSM,node/13482843754,33.4813279,-81.9779301
butler-tire-wheels-ga,Butler Tire & Wheels,Repair Shops (XJ/Jeep-Friendly),Marietta,GA,"106, Powers Ferry Road Southeast, Marietta, GA, 30067",+1-770-973-8622,https://www.butlertire.com/contact/marietta,"https://www.google.com/maps?q=33.949069,-84.510529","repair, mechanic",,OSM,way/1473501742,33.9490694,-84.510529
cadillac-care-by-randy-s-automotive-ga,Cadillac Care By Randy's Automotive,Repair Shops (XJ/Jeep-Friendly),,GA,"640, Merritt Road Northeast, GA",+1-770-218-2123,,"https://www.google.com/maps?q=33.967705,-84.514348","repair, mechanic",,OSM,node/13457124283,33.9677054,-84.5143483
caliber-collision-ga,Caliber Collision,Repair Shops (XJ/Jeep-Friendly),,GA,"850, Mountain Industrial Drive Northwest, GA",,https://www.caliber.com/find-a-location/kennesaw,"https://www.google.com/maps?q=33.986249,-84.576494","repair, mechanic",,OSM,node/13387422545,33.9862489,-84.5764939
canaan-car-wash-express-lube-ga,Canaan Car Wash Express Lube,Repair Shops (XJ/Jeep-Friendly),Villa Rica,GA,"100, Commons Way, Villa Rica, GA, 30180",+1-678-941-3823,,"https://www.google.com/maps?q=33.717730,-84.936080","repair, mechanic",,OSM,way/685705506,33.7177297,-84.9360801
canton-road-muffler-automotive-repair-ga,Canton Road Muffler & Automotive Repair,Repair Shops (XJ/Jeep-Friendly),,GA,"2093, Canton Road Northeast, GA",+1 770-424-9724,,"https://www.google.com/maps?q=34.002017,-84.525174","repair, mechanic",,OSM,way/1160216456,34.0020165,-84.5251742
car-corner-ga,Car Corner,Repair Shops (XJ/Jeep-Friendly),,GA,GA,+1 770-591-4555,,"https://www.google.com/maps?q=34.086192,-84.518490","repair, mechanic",,OSM,node/8042531187,34.0861916,-84.5184901
car-spa-ga,Car Spa,Repair Shops (XJ/Jeep-Friendly),Marietta,GA,"2330, Cobb Parkway South, Marietta, GA, 30067",+1-770-407-7876,https://carspa.net/locations/marietta-ga-car-wash/,"https://www.google.com/maps?q=33.902790,-84.486257","repair, mechanic",,OSM,way/1482007026,33.9027896,-84.4862574
centennial-motors-ga,Centennial Motors,Repair Shops (XJ/Jeep-Friendly),Alpharetta,GA,"2965 B, Holcomb Bridge Road, Alpharetta, GA, 30022",+1 770-594-8070,http://www.centennialmotorsatl.com,"https://www.google.com/maps?q=33.988366,-84.275012","repair, mechanic",,OSM,node/9788743455,33.9883657,-84.2750118
central-link-complete-auto-repair-ga,Central Link Complete Auto Repair,Repair Shops (XJ/Jeep-Friendly),Marietta,GA,"598, Powder Springs Street Southwest, Marietta, GA, 30064",+1-770-425-3939,http://www.centrallinkautorepairs.com/,"https://www.google.com/maps?q=33.938406,-84.554166","repair, mechanic",,OSM,way/334743785,33.9384058,-84.5541661
chloe-s-auto-repair-ga,Chloe's Auto Repair,Repair Shops (XJ/Jeep-Friendly),Roswell,GA,"4750, Alabama Road, Roswell, GA",+1-770-641-7400,https://www.chloesautorepair.com/,"https://www.google.com/maps?q=34.066482,-84.423451","repair, mechanic",,OSM,node/12207854842,34.0664821,-84.423451
chloes-auto-repair-and-tire-ga,Chloes Auto Repair and Tire,Repair Shops (XJ/Jeep-Friendly),Woodstock,GA,"6422, Bells Ferry Road, Woodstock, GA, 30189",+1-770-575-8800,https://chloesautorepair.com/,"https://www.google.com/maps?q=34.112842,-84.580440","repair, mechanic",,OSM,node/8778017125,34.1128424,-84.5804403
chloes-auto-repair-and-tire-ga-2,Chloes Auto Repair and Tire,Repair Shops (XJ/Jeep-Friendly),Dallas,GA,"1340A, Hiram Acworth Highway, Dallas, GA, 30157",+1-770-222-9696,,"https://www.google.com/maps?q=33.910021,-84.746944","repair, mechanic",,OSM,way/386432728,33.910021,-84.7469436
chloes-auto-repair-and-tire-kennesaw-ga,Chloes Auto Repair and Tire Kennesaw,Repair Shops (XJ/Jeep-Friendly),Kennesaw,GA,"6422, Stilesboro Road, Kennesaw, GA, 30152",+1-770-428-8233,,"https://www.google.com/maps?q=33.991807,-84.627765","repair, mechanic",,OSM,way/992845570,33.9918065,-84.627765
christian-brothers-automotive-ga,Christian Brothers Automotive,Repair Shops (XJ/Jeep-Friendly),Marietta,GA,"2739, Delk Road Southeast, Marietta, GA, 30067",+1-770-738-8996,https://www.cbac.com/east-cobb/,"https://www.google.com/maps?q=33.923432,-84.474199","repair, mechanic",,OSM,way/284051610,33.9234321,-84.474199
classic-collision-ga,Classic Collision,Repair Shops (XJ/Jeep-Friendly),Augusta,GA,"211, 15th Street, Augusta, GA, 30901",+1-706-262-8515,https://classiccollision.com/locations/classic-collision-augusta-canal/,"https://www.google.com/maps?q=33.480187,-81.983062","repair, mechanic",,OSM,node/13517776553,33.4801874,-81.9830622
classic-collision-ga-2,Classic Collision,Repair Shops (XJ/Jeep-Friendly),,GA,"1680, Old 41 Highway Northwest, GA",+1 678-391-6480,https://classiccollision.com/locations/classic-collision-kennesaw/,"https://www.google.com/maps?q=33.994904,-84.597107","repair, mechanic",,OSM,way/992846993,33.9949039,-84.5971073
classic-collision-of-cumming-ga,Classic Collision of Cumming,Repair Shops (XJ/Jeep-Friendly),Cumming,GA,"5825, Bethelview Road, Cumming, GA, 30040",+1-678-807-8030,,"https://www.google.com/maps?q=34.168420,-84.178373","repair, mechanic",,OSM,way/387811419,34.1684197,-84.1783731
cobb-galleria-automotive-ga,Cobb Galleria Automotive,Repair Shops (XJ/Jeep-Friendly),Smyrna,GA,"2781, Cumberland Boulevard Southeast, Smyrna, GA, 30080",+1-770-438-1916,https://cobbgalleriaauto.com/,"https://www.google.com/maps?q=33.885193,-84.476238","repair, mechanic",,OSM,way/264851786,33.8851934,-84.4762377
cobra-restorers-ga,Cobra Restorers,Repair Shops (XJ/Jeep-Friendly),Kennesaw,GA,"3099, Carter Circle, Kennesaw, GA, 30144",+1 770-427-0020,,"https://www.google.com/maps?q=34.029259,-84.617351","repair, mechanic",,OSM,node/11826452971,34.029259,-84.617351
collision-pro-fix-ga,Collision Pro Fix,Repair Shops (XJ/Jeep-Friendly),,GA,"1460, Roswell Road, GA",+1-770-755-0042,https://www.collisionprofix.com/,"https://www.google.com/maps?q=33.950163,-84.509363","repair, mechanic",,OSM,way/326384012,33.9501629,-84.5093629
collision-tech-ga,Collision Tech,Repair Shops (XJ/Jeep-Friendly),,GA,"2115, Cobb Parkway, GA",+1-770-422-0468,http://www.collisiontech.com/,"https://www.google.com/maps?q=34.005235,-84.604606","repair, mechanic",,OSM,way/992857284,34.0052352,-84.6046055
community-auto-care-ga,Community Auto Care,Repair Shops (XJ/Jeep-Friendly),,GA,"335, GA",+1 770-887-7992,,"https://www.google.com/maps?q=34.213605,-84.144930","repair, mechanic",,OSM,way/390254315,34.2136045,-84.1449297
complete-automotive-tire-center-ga,Complete Automotive Tire Center,Repair Shops (XJ/Jeep-Friendly),Covington,GA,"10500, Eagle Drive, Covington, GA, 30014",+1-470-444-1607,https://www.completeautomotivetirecenter.com/,"https://www.google.com/maps?q=33.571940,-83.846695","repair, mechanic",,OSM,way/1153061613,33.5719397,-83.8466954
cooper-lake-automotive-ga,Cooper Lake Automotive,Repair Shops (XJ/Jeep-Friendly),Smyrna,GA,"4739, South Cobb Drive, Smyrna, GA, 30080",+1 844 940 0391,https://cooperlakeautomotive.com/,"https://www.google.com/maps?q=33.838190,-84.493760","repair, mechanic",,OSM,way/1003919063,33.8381901,-84.4937597
covington-auto-collision-ga,Covington Auto Collision,Repair Shops (XJ/Jeep-Friendly),Covington,GA,"3172, Highway 278 Northeast, Covington, GA, 30014",+1-470-444-1111,,"https://www.google.com/maps?q=33.601989,-83.858417","repair, mechanic",,OSM,way/1121092676,33.6019887,-83.8584174
covington-pro-lube-ga,Covington Pro Lube,Repair Shops (XJ/Jeep-Friendly),Covington,GA,"4179, Highway 278 Northwest, Covington, GA, 30014",+1-678-712-9293,https://www.covingtonprolube.com/,"https://www.google.com/maps?q=33.603604,-83.868591","repair, mechanic",,OSM,way/1131277296,33.6036044,-83.8685909
crash-champions-ga,Crash Champions,Repair Shops (XJ/Jeep-Friendly),Duluth,GA,"3274, Peachtree Industrial Boulevard, Duluth, GA, 30096",+1 770-623-9378,https://crashchampions.com/locations/crash-champions-duluth,"https://www.google.com/maps?q=34.018541,-84.160844","repair, mechanic",,OSM,way/394690233,34.0185415,-84.1608441
crash-champions-ga-2,Crash Champions,Repair Shops (XJ/Jeep-Friendly),,GA,GA,+1 770-580-8517,https://crashchampions.com/locations/crash-champions-tucker,"https://www.google.com/maps?q=33.826854,-84.250680","repair, mechanic",,OSM,way/41385696,33.8268542,-84.2506804
cs-auto-repair-ga,CS Auto Repair,Repair Shops (XJ/Jeep-Friendly),,GA,"1713, Canton Road Northeast, GA",+1 770-424-0282,,"https://www.google.com/maps?q=33.992955,-84.528587","repair, mechanic",,OSM,way/992847660,33.9929554,-84.5285865
cushman-paint-body-ga,Cushman Paint & Body,Repair Shops (XJ/Jeep-Friendly),Augusta,GA,"3926, Wrightsboro Road, Augusta, GA, 30909",+1-706-504-3053,https://www.cushmanpaintandbody.com/,"https://www.google.com/maps?q=33.469954,-82.122608","repair, mechanic",,OSM,way/676117223,33.4699535,-82.1226085
d-c-collision-ga,D & C Collision,Repair Shops (XJ/Jeep-Friendly),Covington,GA,"9213, US Highway 278, Covington, GA, 30014",+1-770-786-7900,,"https://www.google.com/maps?q=33.599435,-83.829611","repair, mechanic",,OSM,way/1121090536,33.5994345,-83.8296109
d-w-campbell-tire-service-ga,D. W. Campbell Tire & Service,Repair Shops (XJ/Jeep-Friendly),,GA,"2970, George Busbee Parkway Northwest, GA",+1-770-405-1312,https://www.dwcampbelltire.com/,"https://www.google.com/maps?q=34.026270,-84.567143","repair, mechanic",,OSM,way/339568275,34.0262703,-84.5671425
d-w-campbell-tire-service-ga-2,D.W. Campbell Tire & Service,Repair Shops (XJ/Jeep-Friendly),,GA,"1291, Powers Ferry Road Southeast, GA",+1-770-405-1955,https://www.dwcampbelltire.com/,"https://www.google.com/maps?q=33.921262,-84.467088","repair, mechanic",,OSM,node/13530281990,33.9212624,-84.4670877
dalton-automotive-ga,Dalton Automotive,Repair Shops (XJ/Jeep-Friendly),,GA,"1225, Hayes Industrial Drive Northeast, GA",+1-770-427-0996,https://dalton-auto.com/,"https://www.google.com/maps?q=33.980096,-84.540210","repair, mechanic",,OSM,node/13418663811,33.9800958,-84.5402097
dawson-forest-auto-ga,Dawson Forest Auto,Repair Shops (XJ/Jeep-Friendly),Dawsonville,GA,"2362, Dawson Forest Road East, Dawsonville, GA, 30534",+1-706-216-6941,,"https://www.google.com/maps?q=34.353365,-84.074526","repair, mechanic",,OSM,way/559258660,34.353365,-84.0745262
dent-scene-ga,Dent Scene,Repair Shops (XJ/Jeep-Friendly),Covington,GA,"5119, Highway 278 Northwest, Covington, GA, 30014",,https://dentscene.business.site/?utm_source=gmb&utm_medium=referral,"https://www.google.com/maps?q=33.604976,-83.869701","repair, mechanic",,OSM,way/1130734638,33.6049764,-83.8697009
diesel-david-inc-ga,Diesel David Inc.,Repair Shops (XJ/Jeep-Friendly),,GA,"10262, Main Street, GA",,https://dieseldavid.com/,"https://www.google.com/maps?q=34.078113,-84.522146","repair, mechanic",,OSM,node/12346696684,34.0781134,-84.5221459
digital-car-audio-ga,Digital Car Audio,Repair Shops (XJ/Jeep-Friendly),,GA,"2300, Shallowford Road Northeast, GA",+1 770-592-8828,,"https://www.google.com/maps?q=34.042818,-84.484067","repair, mechanic",,OSM,node/12161206757,34.0428178,-84.4840671
dirt-monkey-performance-ga,Dirt Monkey Performance,Repair Shops (XJ/Jeep-Friendly),Cumming,GA,"2195, Pendley Road, Cumming, GA, 30041",,https://dirtmonkeyperformance.com/,"https://www.google.com/maps?q=34.165565,-84.162057","repair, mechanic",,OSM,way/387811414,34.1655645,-84.1620568
drip-ur-ride-automotive-detailing-ga,Drip Ur Ride Automotive Detailing,Repair Shops (XJ/Jeep-Friendly),Douglasville,GA,"7403, Stone Bluff Drive, Douglasville, GA, 30134",+1 404-207-4722,https://dripurrideautodetailing.square.site/,"https://www.google.com/maps?q=33.777105,-84.743832","repair, mechanic",,OSM,node/13536443259,33.777105,-84.7438319
driven-collision-ga,Driven Collision,Repair Shops (XJ/Jeep-Friendly),,GA,"2184, Cobb Parkway, GA",+1-678-424-1308,https://drivencollision.com/,"https://www.google.com/maps?q=34.006314,-84.603745","repair, mechanic",,OSM,way/283272842,34.0063138,-84.6037451
dw-campbell-of-atlanta-tire-and-service-center-ga,DW Campbell of Atlanta Tire and Service Center,Repair Shops (XJ/Jeep-Friendly),,GA,"1921, Howell Mill Road Northwest, GA, 30318",+1 404-352-0001,https://www.dwctireandservice.com/,"https://www.google.com/maps?q=33.807046,-84.412380","repair, mechanic",,OSM,way/269238368,33.8070462,-84.4123799
dwelle-motor-company-ga,Dwelle Motor Company,Repair Shops (XJ/Jeep-Friendly),,GA,"3319, Fowler Drive, GA",+1 770-426-4109,,"https://www.google.com/maps?q=34.031726,-84.525597","repair, mechanic",,OSM,way/992872106,34.0317255,-84.5255965
e-s-p-ga,E.S.P,Repair Shops (XJ/Jeep-Friendly),Covington,GA,"9224, Washington Street Southwest, Covington, GA, 30014",+1-470-327-2708,,"https://www.google.com/maps?q=33.579664,-83.881743","repair, mechanic",,OSM,way/1152971391,33.579664,-83.881743
