business_id,name,category,city,state,address,phone,website,google_maps_link,tags,jeep_note,source,osm_id,lat,lon
advanced-auto-glass-nc,Advanced Auto Glass,Auto Glass and Windshield,Raeford,NC,"1576, Turnpike Road, Raeford, NC, 28376",+19108750055,,"https://www.google.com/maps?q=34.989289,-79.252779","auto-glass, windshield",,OSM,way/1074586101,34.989289,-79.2527785
bill-s-auto-glass-of-marion-inc-nc,"Bill's Auto Glass of Marion, Inc.",Auto Glass and Windshield,Marion,NC,"41, US-221 Business, Marion, NC, 28752",+1-828-652-5555,,"https://www.google.com/maps?q=35.713287,-82.037228","auto-glass, windshield",,OSM,node/7243491220,35.7132866,-82.0372276
capital-auto-glass-llc-nc,Capital Auto Glass LLC,Auto Glass and Windshield,Garner,NC,"850, Adams Point Drive, Garner, NC, 27529",+19195535352,,"https://www.google.com/maps?q=35.591445,-78.578273","auto-glass, windshield",,OSM,node/9812265797,35.591445,-78.5782727
carthage-auto-glass-nc,Carthage Auto Glass,Auto Glass and Windshield,Carthage,NC,"109, McReynolds Street, Carthage, NC, 28327",+19109471877,,"https://www.google.com/maps?q=35.346314,-79.418162","auto-glass, windshield",,OSM,node/10681028935,35.3463144,-79.4181625
howards-auto-glass-nc-llc-nc,Howards Auto Glass NC LLC,Auto Glass and Windshield,Apex,NC,"5448 Apex Peakway Dr, #341, Apex, NC, 27502",+1-919-290-3426,https://www.howardsautoglass.com,"https://www.google.com/maps?q=35.736698,-78.864655","auto-glass, windshield",,OSM,node/9832378002,35.7366984,-78.8646547
mccain-auto-glass-nc,McCain Auto Glass,Auto Glass and Windshield,,NC,"300, Prescott Street, NC",+1-336-272-4057,https://www.mccainautoglass.com/,"https://www.google.com/maps?q=36.075769,-79.799188","auto-glass, windshield",,OSM,node/13610278582,36.0757691,-79.7991883
taylor-auto-glass-nc,Taylor Auto Glass,Auto Glass and Windshield,,NC,"6381, Burnt Poplar Road, NC",+1-336-851-1380,https://taylorautoglass.com/,"https://www.google.com/maps?q=36.074901,-79.936900","auto-glass, windshield",,OSM,node/13608593566,36.074901,-79.9369005
greasy-axle-lube-nc,Greasy Axle & Lube,"Drivetrain Specialists (Axles, Gears, Driveshafts)",Charlotte,NC,"6230, Albemarle Road, Charlotte, NC, 28212",,http://www.greasyaxle.com,"https://www.google.com/maps?q=35.202610,-80.739148","drivetrain, axle, gears",,OSM,way/324592342,35.2026099,-80.7391482
hoyle-s-tire-axle-nc,Hoyle's Tire & Axle,"Drivetrain Specialists (Axles, Gears, Driveshafts)",,NC,"175, Bear Pond Road, NC, 27537",+1-252-438-2818,,"https://www.google.com/maps?q=36.278536,-78.402904","drivetrain, axle, gears",,OSM,node/10269848909,36.2785363,-78.4029044
auto-diagnostic-nc,Auto Diagnostic,Electrical and Diagnostics (Older Vehicle Friendly),Roanoke Rapids,NC,"834, Julian R Allsbrook Highway, Roanoke Rapids, NC, 27870",+12525414200,,"https://www.google.com/maps?q=36.439774,-77.648325","electrical, diagnostics",,OSM,node/13592162702,36.4397735,-77.6483252
taylor-s-small-engines-sales-service-nc,Taylor's Small Engines Sales & Service,Fabrication and Welding (4x4),Rutherfordton,NC,"299, Railroad Avenue, Rutherfordton, NC, 28139",+1-828-229-8494,https://www.taylorssmallengines.com/,"https://www.google.com/maps?q=35.368382,-81.942235","fabrication, welding, 4x4",,OSM,node/5881291404,35.3683817,-81.9422349
advance-auto-parts-nc-10,Advance Auto Parts,Parts Shops and 4x4 Retailers,Carrboro,NC,"305, East Main Street, Carrboro, NC, 27510",+1-919-967-2289,https://www.carquest.com,"https://www.google.com/maps?q=35.910900,-79.068318","parts, retail",,OSM,node/2567480220,35.9108996,-79.0683178
advance-auto-parts-nc-12,Advance Auto Parts,Parts Shops and 4x4 Retailers,Benson,NC,"503, East Main Street, Benson, NC, 27504",+19192070501,https://stores.advanceautoparts.com/nc/benson/503-e-main-st,"https://www.google.com/maps?q=35.379033,-78.542986","parts, retail",,OSM,node/2973560087,35.3790332,-78.5429864
advance-auto-parts-nc-15,Advance Auto Parts,Parts Shops and 4x4 Retailers,Troutman,NC,"105, Talley Street, Troutman, NC, 28166",+17045084198,https://stores.advanceautoparts.com/nc/troutman/105-talley-st,"https://www.google.com/maps?q=35.705054,-80.891807","parts, retail",,OSM,node/4059089842,35.7050537,-80.8918067
advance-auto-parts-nc-16,Advance Auto Parts,Parts Shops and 4x4 Retailers,Lincolnton,NC,"1017, East Main Street, Lincolnton, NC, 28092",+1-704-732-2223,https://stores.advanceautoparts.com/nc/lincolnton/1017-e-main-st,"https://www.google.com/maps?q=35.475849,-81.244121","parts, retail",,OSM,node/5473885915,35.4758487,-81.2441211
advance-auto-parts-nc-17,Advance Auto Parts,Parts Shops and 4x4 Retailers,Pittsboro,NC,"462, East Street, Pittsboro, NC, 27312",+19195422899,https://stores.advanceautoparts.com/nc/pittsboro/462-east-st,"https://www.google.com/maps?q=35.719574,-79.168959","parts, retail",,OSM,node/5785410037,35.7195735,-79.1689589
advance-auto-parts-nc-19,Advance Auto Parts,Parts Shops and 4x4 Retailers,Cary,NC,"1207, Kildaire Farm Road, Cary, NC, 27511",+1-919-467-8637,https://stores.advanceautoparts.com/nc/cary/1207-kildaire-farm-road,"https://www.google.com/maps?q=35.763488,-78.782098","parts, retail",,OSM,node/5984377272,35.763488,-78.7820975
advance-auto-parts-nc-21,Advance Auto Parts,Parts Shops and 4x4 Retailers,Moyock,NC,"107, Currituck Commercial Drive, Moyock, NC, 27958",+12524352686,https://stores.advanceautoparts.com/nc/moyock/107-currituck-commerical-dr,"https://www.google.com/maps?q=36.515747,-76.168888","parts, retail",,OSM,node/6311332881,36.5157473,-76.1688881
advance-auto-parts-nc-23,Advance Auto Parts,Parts Shops and 4x4 Retailers,Selma,NC,"1437, South Pollock Street, Selma, NC, 27576",+1-919-965-3067,https://stores.advanceautoparts.com/nc/selma/1437-s-pollock-st,"https://www.google.com/maps?q=35.524133,-78.300346","parts, retail",,OSM,node/6702971359,35.5241334,-78.3003457
advance-auto-parts-nc-24,Advance Auto Parts,Parts Shops and 4x4 Retailers,Marion,NC,"444, North Main Street, Marion, NC, 28752",+1-828-652-8100,https://stores.advanceautoparts.com/nc/marion/444-n-main-st,"https://www.google.com/maps?q=35.688624,-82.014329","parts, retail",,OSM,node/6761199413,35.688624,-82.0143286
advance-auto-parts-nc-27,Advance Auto Parts,Parts Shops and 4x4 Retailers,Mebane,NC,"1006, Mebane Oaks Road, Mebane, NC, 27302",+1-919-563-2013,https://stores.advanceautoparts.com/nc/mebane/1006-mebane-oaks-rd,"https://www.google.com/maps?q=36.074338,-79.274175","parts, retail",,OSM,node/7193284067,36.0743378,-79.2741747
advance-auto-parts-nc-28,Advance Auto Parts,Parts Shops and 4x4 Retailers,Red Springs,NC,"909, East 4th Avenue, Red Springs, NC, 28377",+1-910-843-3696,https://stores.advanceautoparts.com/nc/red-springs/909-e-4th-ave,"https://www.google.com/maps?q=34.808068,-79.168391","parts, retail",,OSM,node/7200950868,34.8080678,-79.1683915
advance-auto-parts-nc-29,Advance Auto Parts,Parts Shops and 4x4 Retailers,Yanceyville,NC,"1900, NC-86, Yanceyville, NC, 27379",+1-336-694-1110,https://stores.advanceautoparts.com/nc/yanceyville/1900-nc-highway-86-n,"https://www.google.com/maps?q=36.416246,-79.347242","parts, retail",,OSM,node/7306087099,36.4162456,-79.347242
advance-auto-parts-nc-30,Advance Auto Parts,Parts Shops and 4x4 Retailers,Ahoskie,NC,"1476, E Memorial Dr, Ahoskie, NC, 27910",+1-252-332-8112,https://stores.advanceautoparts.com/nc/ahoskie/1476-memorial-dr-e,"https://www.google.com/maps?q=36.273474,-76.973963","parts, retail",,OSM,node/7605065524,36.2734742,-76.9739632
advance-auto-parts-nc-31,Advance Auto Parts,Parts Shops and 4x4 Retailers,Beulaville,NC,"208, East Main Street, Beulaville, NC, 28518",+1-910-298-2035,https://stores.advanceautoparts.com/nc/beulaville/208-e-main-st,"https://www.google.com/maps?q=34.922993,-77.772190","parts, retail",,OSM,node/8725084494,34.922993,-77.77219
advance-auto-parts-nc-32,Advance Auto Parts,Parts Shops and 4x4 Retailers,Wilkesboro,NC,"1848, US-421, Wilkesboro, NC, 28697",+13366678901,https://stores.advanceautoparts.com/nc/wilkesboro/1848-us-highway-421,"https://www.google.com/maps?q=36.150601,-81.200154","parts, retail",,OSM,node/9267539916,36.1506014,-81.2001537
advance-auto-parts-nc-33,Advance Auto Parts,Parts Shops and 4x4 Retailers,Farmville,NC,"8452, East Marlboro Road, Farmville, NC, 27828",+12527534884,https://stores.advanceautoparts.com/nc/farmville/8452-west-marlboro-road,"https://www.google.com/maps?q=35.580871,-77.590834","parts, retail",,OSM,node/9385752724,35.580871,-77.5908338
advance-auto-parts-nc-35,Advance Auto Parts,Parts Shops and 4x4 Retailers,Burnsville,NC,"693, US 19E, Burnsville, NC, 28714",+1-828-682-4365,https://stores.advanceautoparts.com/nc/burnsville/693-w-us-highway-19e-byp,"https://www.google.com/maps?q=35.912405,-82.310874","parts, retail",,OSM,node/9882381329,35.9124048,-82.3108739
advance-auto-parts-nc-36,Advance Auto Parts,Parts Shops and 4x4 Retailers,Dunn,NC,"1108, West Cumberland Street, Dunn, NC, 28334",+19108914290,https://stores.advanceautoparts.com/nc/dunn/1108-w-cumberland-st,"https://www.google.com/maps?q=35.313721,-78.621110","parts, retail",,OSM,node/9977131325,35.3137207,-78.6211099
advance-auto-parts-nc,Advance Auto Parts,Parts Shops and 4x4 Retailers,Locust,NC,"105, East Market Street, Locust, NC, 28097",+17048883068,https://stores.advanceautoparts.com/nc/locust/105-main-st-e,"https://www.google.com/maps?q=35.260988,-80.423430","parts, retail",,OSM,node/10084832215,35.2609881,-80.4234304
advance-auto-parts-nc-2,Advance Auto Parts,Parts Shops and 4x4 Retailers,Spring Hope,NC,"93, Dodd Street, Spring Hope, NC, 27882",+12524770482,https://stores.advanceautoparts.com/nc/spring-hope/93-dodd-st,"https://www.google.com/maps?q=35.950835,-78.105533","parts, retail",,OSM,node/10280537548,35.9508349,-78.1055326
advance-auto-parts-nc-3,Advance Auto Parts,Parts Shops and 4x4 Retailers,Walkertown,NC,"5148, Reidsville Road, Walkertown, NC, 27051",+1-336-595-8336,https://stores.advanceautoparts.com/nc/walkertown/5148-reidsville-rd,"https://www.google.com/maps?q=36.162759,-80.138822","parts, retail",,OSM,node/10297701558,36.1627589,-80.1388224
advance-auto-parts-nc-4,Advance Auto Parts,Parts Shops and 4x4 Retailers,Murfreesboro,NC,"918, West Main Street, Murfreesboro, NC, 27855",+12523983977,https://stores.advanceautoparts.com/nc/murfreesboro/918-w-main-st,"https://www.google.com/maps?q=36.442017,-77.119406","parts, retail",,OSM,node/10299231180,36.4420172,-77.1194059
advance-auto-parts-nc-5,Advance Auto Parts,Parts Shops and 4x4 Retailers,Yadkinville,NC,"947, South State Street, Yadkinville, NC, 27055",+1-336-679-6335,https://stores.advanceautoparts.com/nc/yadkinville/947-s-state-st,"https://www.google.com/maps?q=36.116413,-80.659357","parts, retail",,OSM,node/10312996589,36.1164128,-80.6593573
advance-auto-parts-nc-6,Advance Auto Parts,Parts Shops and 4x4 Retailers,North Wilkesboro,NC,"625, 2nd Street, North Wilkesboro, NC, 28659",+13368381665,https://stores.advanceautoparts.com/nc/north-wilkesboro/625-2nd-st,"https://www.google.com/maps?q=36.169626,-81.140066","parts, retail",,OSM,node/10584076669,36.1696261,-81.1400661
advance-auto-parts-nc-7,Advance Auto Parts,Parts Shops and 4x4 Retailers,Granite Falls,NC,"3918, Hickory Boulevard, Granite Falls, NC, 28630",+18283130390,https://stores.advanceautoparts.com/nc/granite-falls/3918-hickory-blvd,"https://www.google.com/maps?q=35.813003,-81.433218","parts, retail",,OSM,node/10589140891,35.8130027,-81.4332184
advance-auto-parts-nc-8,Advance Auto Parts,Parts Shops and 4x4 Retailers,Canton,NC,"224, New Clyde Highway, Canton, NC, 28716",+18286481592,https://stores.advanceautoparts.com/nc/canton/224-new-clyde-hwy,"https://www.google.com/maps?q=35.532863,-82.852099","parts, retail",,OSM,node/10723724746,35.5328626,-82.8520993
advance-auto-parts-nc-9,Advance Auto Parts,Parts Shops and 4x4 Retailers,Burgaw,NC,"501, US-117 Bypass North, Burgaw, NC, 28425",+19102598722,https://stores.advanceautoparts.com/nc/burgaw/501-us-highway-117-n,"https://www.google.com/maps?q=34.559100,-77.920103","parts, retail",,OSM,node/10816503206,34.5590998,-77.9201026
advance-auto-parts-nc-54,Advance Auto Parts,Parts Shops and 4x4 Retailers,Garner,NC,"1500, US 70, Garner, NC, 27529",+19197722788,https://stores.advanceautoparts.com/nc/garner/1500-us-70-hwy-w?utm_medium=local&utm_source=yext-gmb&utm_content=gmb-2016-12-29&utm_campaign=aap,"https://www.google.com/maps?q=35.723346,-78.645180","parts, retail",,OSM,way/47758872,35.7233455,-78.6451799
advance-auto-parts-nc-43,Advance Auto Parts,Parts Shops and 4x4 Retailers,Plymouth,NC,"191, US Highway 64 East, Plymouth, NC, 27962",+1 252 793 6025,https://stores.advanceautoparts.com/nc/plymouth/130-us-highway-64-e,"https://www.google.com/maps?q=35.859718,-76.742337","parts, retail",,OSM,way/249217383,35.8597178,-76.7423374
advance-auto-parts-nc-45,Advance Auto Parts,Parts Shops and 4x4 Retailers,Windsor,NC,"109, US-13, Windsor, NC, 27983",+12527943500,https://stores.advanceautoparts.com/nc/windsor/109a-us-highway-13-n,"https://www.google.com/maps?q=36.008709,-76.955899","parts, retail",,OSM,way/306634268,36.0087091,-76.9558986
advance-auto-parts-nc-46,Advance Auto Parts,Parts Shops and 4x4 Retailers,Mocksville,NC,"1242, Yadkinville Road, Mocksville, NC, 27028",+13367512800,https://stores.advanceautoparts.com/nc/mocksville/1242-yadkinville-rd,"https://www.google.com/maps?q=35.915574,-80.581925","parts, retail",,OSM,way/313035327,35.9155737,-80.5819252
advance-auto-parts-nc-49,Advance Auto Parts,Parts Shops and 4x4 Retailers,Morganton,NC,"405, West Fleming Drive, Morganton, NC, 28655",+18284381515,https://stores.advanceautoparts.com/nc/morganton/405-w-fleming-dr,"https://www.google.com/maps?q=35.734314,-81.683796","parts, retail",,OSM,way/375971389,35.7343144,-81.6837959
advance-auto-parts-nc-50,Advance Auto Parts,Parts Shops and 4x4 Retailers,Louisburg,NC,"352, South Bickett Boulevard, Louisburg, NC, 27549",+1-919-496-3078,https://stores.advanceautoparts.com/nc/louisburg/352-s-bickett-blvd,"https://www.google.com/maps?q=36.087314,-78.303314","parts, retail",,OSM,way/394887353,36.0873139,-78.3033142
advance-auto-parts-nc-51,Advance Auto Parts,Parts Shops and 4x4 Retailers,Lenoir,NC,"310, Blowing Rock Boulevard, Lenoir, NC, 28645",+1-828-754-0933,https://stores.advanceautoparts.com/nc/lenoir/310-blowing-rock-blvd,"https://www.google.com/maps?q=35.918978,-81.525066","parts, retail",,OSM,way/403751920,35.9189776,-81.5250664
advance-auto-parts-nc-53,Advance Auto Parts,Parts Shops and 4x4 Retailers,Raleigh,NC,"7945, Ten Ten Road, Raleigh, NC, 27603",+1-919-229-8057,https://stores.advanceautoparts.com/nc/raleigh/7945-ten-ten-rd,"https://www.google.com/maps?q=35.666721,-78.699725","parts, retail",,OSM,way/441684131,35.6667213,-78.6997255
advance-auto-parts-nc-56,Advance Auto Parts,Parts Shops and 4x4 Retailers,Midway Park,NC,"201, Freedom Way, Midway Park, NC, 28544",+1-910-353-5455,https://stores.advanceautoparts.com/nc/midway-park/201-freedom-way,"https://www.google.com/maps?q=34.717264,-77.324360","parts, retail",,OSM,way/535419583,34.7172635,-77.3243604
advance-auto-parts-nc-58,Advance Auto Parts,Parts Shops and 4x4 Retailers,Madison,NC,"437, South 2nd Avenue, Madison, NC, 27025",+13364274600,https://stores.advanceautoparts.com/nc/mayodan/437-s-2nd-ave,"https://www.google.com/maps?q=36.402728,-79.970829","parts, retail",,OSM,way/581406837,36.4027277,-79.9708295
advance-auto-parts-nc-59,Advance Auto Parts,Parts Shops and 4x4 Retailers,Sanford,NC,"2570, Lee Avenue, Sanford, NC, 27332",+19197757515,https://stores.advanceautoparts.com/nc/sanford/2570-lee-ave,"https://www.google.com/maps?q=35.455611,-79.151893","parts, retail",,OSM,way/587297940,35.4556111,-79.1518929
advance-auto-parts-nc-60,Advance Auto Parts,Parts Shops and 4x4 Retailers,Elkin,NC,"419, CC Camp Road, Elkin, NC, 28621",+1 336 526-4764,https://stores.advanceautoparts.com/nc/elkin/419-cc-camp-rd,"https://www.google.com/maps?q=36.271901,-80.850341","parts, retail",,OSM,way/612179099,36.2719005,-80.8503408
advance-auto-parts-nc-61,Advance Auto Parts,Parts Shops and 4x4 Retailers,Richlands,NC,"8205, Richlands Highway, Richlands, NC, 28574",+19103245457,https://stores.advanceautoparts.com/nc/richlands/8205-richlands-hwy,"https://www.google.com/maps?q=34.895449,-77.548724","parts, retail",,OSM,way/644905592,34.8954491,-77.5487244
advance-auto-parts-nc-62,Advance Auto Parts,Parts Shops and 4x4 Retailers,Carthage,NC,"3836, US 15, US 501, Carthage, NC, 28327",+19109471047,https://stores.advanceautoparts.com/nc/carthage/3836-u-s-highway-15-501,"https://www.google.com/maps?q=35.343415,-79.395501","parts, retail",,OSM,way/687470993,35.3434145,-79.3955009
advance-auto-parts-nc-63,Advance Auto Parts,Parts Shops and 4x4 Retailers,Smithfield,NC,"110, North Brightleaf Boulevard, Smithfield, NC, 27577",+1-919-934-9458,https://stores.advanceautoparts.com/nc/smithfield/110-n-brightleaf-blvd,"https://www.google.com/maps?q=35.509091,-78.338495","parts, retail",,OSM,way/704973613,35.5090907,-78.3384954
advance-auto-parts-nc-65,Advance Auto Parts,Parts Shops and 4x4 Retailers,Salisbury,NC,"1921, Jake Alexander Boulevard West, Salisbury, NC, 28417",+17046368774,https://stores.advanceautoparts.com/nc/salisbury/1921-jake-alexander-blvd-w,"https://www.google.com/maps?q=35.690756,-80.512192","parts, retail",,OSM,way/732800467,35.6907564,-80.5121915
advance-auto-parts-nc-68,Advance Auto Parts,Parts Shops and 4x4 Retailers,Norwood,NC,"231, North Main Street, Norwood, NC, 28128",+17044743139,https://stores.advanceautoparts.com/nc/norwood/231-n-main-st,"https://www.google.com/maps?q=35.225992,-80.122748","parts, retail",,OSM,way/778838955,35.2259925,-80.1227475
advance-auto-parts-nc-69,Advance Auto Parts,Parts Shops and 4x4 Retailers,Troy,NC,"713, Albemarle Road, Troy, NC, 27371",+19105761962,https://stores.advanceautoparts.com/nc/troy/713-albemarle-rd,"https://www.google.com/maps?q=35.352399,-79.904147","parts, retail",,OSM,way/781530697,35.3523994,-79.9041471
advance-auto-parts-nc-70,Advance Auto Parts,Parts Shops and 4x4 Retailers,Monroe,NC,"2102, West Roosevelt Boulevard, Monroe, NC, 28110",+1 704-289-3238,https://stores.advanceautoparts.com/nc/monroe/2102-w-roosevelt-blvd,"https://www.google.com/maps?q=35.005972,-80.557277","parts, retail",,OSM,way/794379763,35.0059725,-80.557277
advance-auto-parts-nc-71,Advance Auto Parts,Parts Shops and 4x4 Retailers,Zebulon,NC,"420, West Gannon Avenue, Zebulon, NC, 27597",+1-919-269-2097,https://stores.advanceautoparts.com/nc/zebulon/420-w-gannon-ave,"https://www.google.com/maps?q=35.821403,-78.323577","parts, retail",,OSM,way/815099719,35.821403,-78.3235765
advance-auto-parts-nc-72,Advance Auto Parts,Parts Shops and 4x4 Retailers,Clayton,NC,"10529, US 70 Business East;NC 42 East, Clayton, NC, 27520",+1-919-553-5781,https://stores.advanceautoparts.com/nc/clayton/10529-u-s-highway-70-west,"https://www.google.com/maps?q=35.643070,-78.455617","parts, retail",,OSM,way/817627533,35.6430698,-78.4556167
advance-auto-parts-nc-38,Advance Auto Parts,Parts Shops and 4x4 Retailers,Black Mountain,NC,"3116, West State Street, Black Mountain, NC, 28711",+1 828-669-5245,https://stores.advanceautoparts.com/nc/black-mountain/3116-us-70-hwy,"https://www.google.com/maps?q=35.609701,-82.342728","parts, retail",,OSM,way/1069938028,35.6097011,-82.3427281
advance-auto-parts-nc-40,Advance Auto Parts,Parts Shops and 4x4 Retailers,Hickory,NC,"1855, 12th Avenue Northeast, Hickory, NC, 28601",+1-828-327-8502,https://shop.advanceautoparts.com,"https://www.google.com/maps?q=35.743218,-81.301918","parts, retail",,OSM,way/1287178101,35.7432176,-81.301918
advance-auto-parts-nc-47,Advance Auto Parts,Parts Shops and 4x4 Retailers,,NC,"1757, West Williams Street, NC",+1 919 363 4253,https://stores.advanceautoparts.com/nc/apex/1757-w-williams-st,"https://www.google.com/maps?q=35.758643,-78.876662","parts, retail, repair, mechanic",,OSM,way/32076699,35.7586432,-78.8766618
advance-auto-parts-nc-11,Advance Auto Parts,Parts Shops and 4x4 Retailers,Thomasville,NC,"708, Randolph Street, Thomasville, NC",,https://stores.advanceautoparts.com/nc/thomasville/708-randolph-st,"https://www.google.com/maps?q=35.871898,-80.075877","parts, retail",,OSM,node/2872705255,35.8718979,-80.0758768
advance-auto-parts-nc-13,Advance Auto Parts,Parts Shops and 4x4 Retailers,High Point,NC,"2911, South Main Street, High Point, NC",,https://stores.advanceautoparts.com/nc/high-point/2911-s-main-st,"https://www.google.com/maps?q=35.920945,-79.977641","parts, retail",,OSM,node/3416855546,35.9209447,-79.9776408
advance-auto-parts-nc-14,Advance Auto Parts,Parts Shops and 4x4 Retailers,Greensboro,NC,"4410, High Point Road, Greensboro, NC",,https://stores.advanceautoparts.com/nc/greensboro/4410-w-gate-city-blvd,"https://www.google.com/maps?q=36.034388,-79.866493","parts, retail",,OSM,node/3418334342,36.0343878,-79.8664934
advance-auto-parts-nc-18,Advance Auto Parts,Parts Shops and 4x4 Retailers,Durham,NC,"1114, NC Highway 54, Durham, NC, 27707",,https://stores.advanceautoparts.com/nc/durham/1114-w-nc-highway-54,"https://www.google.com/maps?q=35.919948,-78.958540","parts, retail",,OSM,node/5967155488,35.9199477,-78.9585399
advance-auto-parts-nc-20,Advance Auto Parts,Parts Shops and 4x4 Retailers,Franklinton,NC,"3420, US 1 HWY, Franklinton, NC, 27525",,https://stores.advanceautoparts.com/nc/franklinton/3420-us-1-hwy,"https://www.google.com/maps?q=36.100298,-78.466365","parts, retail",,OSM,node/6112447174,36.1002979,-78.4663646
advance-auto-parts-nc-22,Advance Auto Parts,Parts Shops and 4x4 Retailers,Knightdale,NC,"Knightdale, NC, 27529",,https://stores.advanceautoparts.com/nc/knightdale/7139-knightdale-blvd,"https://www.google.com/maps?q=35.798793,-78.489148","parts, retail",,OSM,node/6700041612,35.7987929,-78.4891479
advance-auto-parts-nc-25,Advance Auto Parts,Parts Shops and 4x4 Retailers,Charlotte,NC,"9309, Strause Drive, Charlotte, NC, 28214",,https://stores.advanceautoparts.com/nc/charlotte/9309-strause-dr,"https://www.google.com/maps?q=35.273259,-80.961732","parts, retail",,OSM,node/7176549203,35.2732593,-80.9617319
advance-auto-parts-nc-26,Advance Auto Parts,Parts Shops and 4x4 Retailers,Fletcher,NC,"3268, Hendersonville Road, Fletcher, NC, 28732",,https://stores.advanceautoparts.com/nc/fletcher/3268-hendersonville-rd,"https://www.google.com/maps?q=35.437569,-82.502704","parts, retail",,OSM,node/7188934218,35.437569,-82.5027036
advance-auto-parts-nc-34,Advance Auto Parts,Parts Shops and 4x4 Retailers,Snow Hill,NC,"913, Southeast 2nd Street, Snow Hill, NC, 28580",,https://stores.advanceautoparts.com/nc/snow-hill/913-se-second-st,"https://www.google.com/maps?q=35.443056,-77.663048","parts, retail",,OSM,node/9674284230,35.4430558,-77.6630482
advance-auto-parts-nc-42,Advance Auto Parts,Parts Shops and 4x4 Retailers,Fuquay-Varina,NC,"1233, North Main Street, Fuquay-Varina, NC, 27526",,https://stores.advanceautoparts.com/nc/fuquay-varina/1233-n-main-st,"https://www.google.com/maps?q=35.592248,-78.779974","parts, retail",,OSM,way/234035129,35.5922478,-78.7799737
advance-auto-parts-nc-44,Advance Auto Parts,Parts Shops and 4x4 Retailers,Lillington,NC,"106, West Cornelius Harnett Boulevard, Lillington, NC, 27546",,https://stores.advanceautoparts.com/nc/lillington/106-w-cornelius-harnett-blvd,"https://www.google.com/maps?q=35.419655,-78.805666","parts, retail",,OSM,way/255068946,35.4196554,-78.8056662
advance-auto-parts-nc-48,Advance Auto Parts,Parts Shops and 4x4 Retailers,Lexington,NC,"6055, Old US Hwy 52, Lexington, NC",,https://stores.advanceautoparts.com/nc/lexington/6055-old-us-highway-52,"https://www.google.com/maps?q=35.908538,-80.256626","parts, retail",,OSM,way/335280019,35.9085375,-80.2566264
advance-auto-parts-nc-52,Advance Auto Parts,Parts Shops and 4x4 Retailers,Harrisburg,NC,"3900, Main Street, Harrisburg, NC, 28075",,https://stores.advanceautoparts.com/nc/harrisburg/3900-main-st,"https://www.google.com/maps?q=35.323080,-80.644432","parts, retail",,OSM,way/435994332,35.3230796,-80.6444317
advance-auto-parts-nc-55,Advance Auto Parts,Parts Shops and 4x4 Retailers,Gastonia,NC,"215, South New Hope Road, Gastonia, NC, 28054",,https://stores.advanceautoparts.com/nc/gastonia/215-s-new-hope-rd,"https://www.google.com/maps?q=35.259662,-81.152100","parts, retail",,OSM,way/497160553,35.2596623,-81.1520999
advance-auto-parts-nc-57,Advance Auto Parts,Parts Shops and 4x4 Retailers,Raeford,NC,"307, Fayetteville Road, Raeford, NC, 28376",,https://stores.advanceautoparts.com/nc/raeford/307-fayetteville-rd,"https://www.google.com/maps?q=34.980663,-79.236783","parts, retail",,OSM,way/550015352,34.9806626,-79.2367826
advance-auto-parts-nc-64,Advance Auto Parts,Parts Shops and 4x4 Retailers,Mooresville,NC,"108, Morrison Plantation Parkway, Mooresville, NC, 28117",,https://stores.advanceautoparts.com/nc/mooresville/696-river-hwy,"https://www.google.com/maps?q=35.595902,-80.878133","parts, retail",,OSM,way/721070587,35.5959021,-80.8781326
advance-auto-parts-nc-66,Advance Auto Parts,Parts Shops and 4x4 Retailers,Shelby,NC,"1829, East Dixon Boulevard, Shelby, NC, 28152",,https://stores.advanceautoparts.com/nc/shelby/1829-e-dixon-blvd,"https://www.google.com/maps?q=35.272560,-81.495640","parts, retail",,OSM,way/769797158,35.2725603,-81.4956398
advance-auto-parts-nc-67,Advance Auto Parts,Parts Shops and 4x4 Retailers,Mount Airy,NC,"2038, Rockford Street, Mount Airy, NC, 27030",,https://stores.advanceautoparts.com/nc/mount-airy/2038-rockford-st,"https://www.google.com/maps?q=36.479614,-80.617033","parts, retail",,OSM,way/770719145,36.4796136,-80.6170331
advance-auto-parts-nc-73,Advance Auto Parts,Parts Shops and 4x4 Retailers,Liberty,NC,"512, West Swannanoa Avenue, Liberty, NC, 27298",,https://stores.advanceautoparts.com/nc/liberty/512-w-swannanoa-ave,"https://www.google.com/maps?q=35.852449,-79.580682","parts, retail",,OSM,way/833707941,35.8524491,-79.5806821
advance-auto-parts-nc-37,Advance Auto Parts,Parts Shops and 4x4 Retailers,Belhaven,NC,"926, US Highway 264 Bypass, Belhaven, NC, 27810",,https://stores.advanceautoparts.com/nc/belhaven/926-us-highway-264-byp,"https://www.google.com/maps?q=35.552532,-76.625220","parts, retail",,OSM,way/1013180217,35.5525317,-76.6252203
advance-auto-parts-nc-39,Advance Auto Parts,Parts Shops and 4x4 Retailers,Asheville,NC,"400, Merrimon Avenue, Asheville, NC, 28804",+1-828-318-8673,,"https://www.google.com/maps?q=35.613044,-82.555606","parts, retail",,OSM,way/1082715470,35.6130442,-82.5556062
advance-auto-parts-nc-41,Advance Auto Parts,Parts Shops and 4x4 Retailers,Albemarle,NC,"640, NC24-27, Albemarle, NC, 28001",,https://stores.advanceautoparts.com/nc/albemarle/640-nc-24-27-byp-e,"https://www.google.com/maps?q=35.343419,-80.173552","parts, retail",,OSM,way/1475450300,35.3434193,-80.1735523
advance-auto-sales-nc,Advance Auto Sales,Parts Shops and 4x4 Retailers,Boone,NC,"1335, US-421, Boone, NC, 28607",+18282669670,,"https://www.google.com/maps?q=36.222114,-81.654576","parts, retail",,OSM,node/9537158333,36.222114,-81.6545759
auria-solutions-engineering-center-nc,Auria Solutions Engineering Center,Parts Shops and 4x4 Retailers,Old Fort,NC,"1506, East Main Street, Old Fort, NC, 28762",+18286687601,,"https://www.google.com/maps?q=35.641960,-82.161332","parts, retail",,OSM,node/10021351181,35.6419604,-82.1613324
autozone-nc-14,AutoZone,Parts Shops and 4x4 Retailers,Rolesville,NC,"410, South Main Street, Rolesville, NC, 27571",+19195560294,https://www.autozone.com/locations/nc/rolesville/410-s-main-st.html,"https://www.google.com/maps?q=35.918588,-78.466130","parts, retail",,OSM,node/5583126617,35.9185881,-78.4661296
autozone-nc-15,AutoZone,Parts Shops and 4x4 Retailers,Pittsboro,NC,"1695, Hillsboro Street, Pittsboro, NC, 27312",+1-919-726-5100,https://www.autozone.com/locations/nc/pittsboro/1695-hillsboro-st.html,"https://www.google.com/maps?q=35.743231,-79.169012","parts, retail",,OSM,node/5785406748,35.7432314,-79.1690116
autozone-nc-16,AutoZone,Parts Shops and 4x4 Retailers,Boone,NC,"1275, Blowing Rock Road, Boone, NC, 28607",+1-828-278-6086,https://www.autozone.com/locations/nc/boone/1275-blowing-rock-rd.html,"https://www.google.com/maps?q=36.203701,-81.665159","parts, retail",,OSM,node/6591960152,36.2037014,-81.6651593
autozone-nc-17,AutoZone,Parts Shops and 4x4 Retailers,Four Oaks,NC,"6064, US 301 Highway South, Four Oaks, NC, 27524",+19199633624,https://www.autozone.com/locations/nc/four-oaks/6064-us-highway-301-s.html,"https://www.google.com/maps?q=35.447147,-78.422901","parts, retail",,OSM,node/6628308730,35.4471472,-78.4229015
autozone-nc-18,AutoZone,Parts Shops and 4x4 Retailers,Candler,NC,"929, Smokey Park Highway, Candler, NC, 28715",+18286657811,https://www.autozone.com/locations/nc/candler/929-smokey-park-hwy.html,"https://www.google.com/maps?q=35.546334,-82.657515","parts, retail",,OSM,node/6670331912,35.546334,-82.6575145
autozone-nc-19,AutoZone,Parts Shops and 4x4 Retailers,Marion,NC,"599, North Main Street, Marion, NC, 28752",+1-828-652-0168,https://www.autozone.com/locations/nc/marion/599-n-main-st.html,"https://www.google.com/maps?q=35.688900,-82.017100","parts, retail",,OSM,node/6765237102,35.6889,-82.0171
autozone-nc-20,AutoZone,Parts Shops and 4x4 Retailers,Red Springs,NC,"905, East 4th Avenue, Red Springs, NC, 28377",+1-910-843-4280,https://www.autozone.com/locations/nc/red-springs/905-e-4th-ave.html,"https://www.google.com/maps?q=34.808827,-79.169050","parts, retail",,OSM,node/7200951060,34.808827,-79.16905
autozone-nc-22,AutoZone,Parts Shops and 4x4 Retailers,Coats,NC,"407, North McKinley Street, Coats, NC, 27521",+1-910-591-5073,https://www.autozone.com/locations/nc/coats/407-n-mckinley-st.html,"https://www.google.com/maps?q=35.413315,-78.673585","parts, retail",,OSM,node/7393098327,35.4133152,-78.6735854
autozone-nc-23,AutoZone,Parts Shops and 4x4 Retailers,Raleigh,NC,"2408, Wake Forest Road, Raleigh, NC, 27608",+19198280675,https://www.autozone.com/locations/nc/raleigh/2408-wake-forest-rd.html,"https://www.google.com/maps?q=35.814100,-78.625962","parts, retail",,OSM,node/9382603277,35.8141001,-78.6259621
autozone-nc-24,AutoZone,Parts Shops and 4x4 Retailers,Creedmoor,NC,"1571, NC 56, Creedmoor, NC, 27522",+1 919 529 0251,https://www.autozone.com/locations/nc/creedmoor/1571-nc-highway-56.html,"https://www.google.com/maps?q=36.143582,-78.720507","parts, retail",,OSM,node/9393317730,36.1435823,-78.7205071
autozone-nc-25,AutoZone,Parts Shops and 4x4 Retailers,Snow Hill,NC,"909, Southeast 2nd Street, Snow Hill, NC, 28580",+12527472194,https://www.autozone.com/locations/nc/snow-hill/909-se-2nd-st.html,"https://www.google.com/maps?q=35.443914,-77.663627","parts, retail",,OSM,node/9674235309,35.4439145,-77.6636272
autozone-nc-26,AutoZone,Parts Shops and 4x4 Retailers,Goldsboro,NC,"2109, East Ash Street, Goldsboro, NC, 27530",+19197349227,https://www.autozone.com/locations/nc/goldsboro/2109-e-ash-st.html,"https://www.google.com/maps?q=35.376763,-77.962825","parts, retail",,OSM,node/9685721822,35.3767628,-77.9628247
autozone-nc-27,AutoZone,Parts Shops and 4x4 Retailers,Smithfield,NC,"721, North Brightleaf Boulevard, Smithfield, NC, 27577",+19199891932,https://www.autozone.com/locations/nc/smithfield/721-n-brightleaf-blvd.html,"https://www.google.com/maps?q=35.515360,-78.329783","parts, retail",,OSM,node/9707362231,35.5153595,-78.3297827
autozone-nc-28,AutoZone,Parts Shops and 4x4 Retailers,Angier,NC,"34, Shelly Drive, Angier, NC, 27501",+19196393075,https://www.autozone.com/locations/nc/angier/34-shelly-dr.html,"https://www.google.com/maps?q=35.517655,-78.741478","parts, retail",,OSM,node/9718270391,35.5176548,-78.7414781
autozone-nc-29,AutoZone,Parts Shops and 4x4 Retailers,Valdese,NC,"441, Main Street West, Valdese, NC, 28690",+18288745924,https://www.autozone.com/locations/nc/valdese/441-main-st-w.html,"https://www.google.com/maps?q=35.743676,-81.567202","parts, retail",,OSM,node/9822886782,35.7436763,-81.5672025
autozone-nc,AutoZone,Parts Shops and 4x4 Retailers,Clayton,NC,"38, SW Flowers Parkway, Clayton, NC, 27527",+1-919-243-6397,https://www.autozone.com/locations/nc/clayton/38-sw-flowers-pkwy.html,"https://www.google.com/maps?q=35.652143,-78.353548","parts, retail",,OSM,node/10078654817,35.6521427,-78.3535479
autozone-nc-2,AutoZone,Parts Shops and 4x4 Retailers,North Wilkesboro,NC,"619, 2nd Street, North Wilkesboro, NC, 28659",+13366675102,https://www.autozone.com/locations/nc/north-wilkesboro/619-2nd-st.html,"https://www.google.com/maps?q=36.168540,-81.139094","parts, retail",,OSM,node/10584076671,36.1685405,-81.1390942
autozone-nc-3,AutoZone,Parts Shops and 4x4 Retailers,Granite Falls,NC,"4810, Hickory Boulevard, Granite Falls, NC, 28630",+18283961496,https://www.autozone.com/locations/nc/granite-falls/4810-hickory-blvd.html,"https://www.google.com/maps?q=35.777597,-81.394214","parts, retail",,OSM,node/10589168024,35.7775971,-81.394214
autozone-nc-4,AutoZone,Parts Shops and 4x4 Retailers,Carthage,NC,"1007, Monroe Street, Carthage, NC, 28327",+19109473890,https://www.autozone.com/locations/nc/carthage/1007-monroe-st.html,"https://www.google.com/maps?q=35.341552,-79.401466","parts, retail",,OSM,node/10681028946,35.3415519,-79.4014658
autozone-nc-5,AutoZone,Parts Shops and 4x4 Retailers,Dunn,NC,"908, West Cumberland Street, Dunn, NC, 28334",+1-910-892-4008,https://www.autozone.com/locations/nc/dunn/908-w-cumberland-st.html,"https://www.google.com/maps?q=35.312396,-78.618514","parts, retail",,OSM,node/10712367336,35.3123962,-78.6185138
autozone-nc-6,AutoZone,Parts Shops and 4x4 Retailers,Burgaw,NC,"606, US-117 Bypass N, Burgaw, NC, 28425",+19107896136,https://www.autozone.com/locations/nc/burgaw/606-us-highway-117-n.html,"https://www.google.com/maps?q=34.561189,-77.920537","parts, retail",,OSM,node/10816493217,34.5611889,-77.9205373
autozone-nc-7,AutoZone,Parts Shops and 4x4 Retailers,Biscoe,NC,"121, Montomery Crossing, Biscoe, NC, 27209",+19104281015,https://www.autozone.com/locations/nc/biscoe/121-montgomery-crossing.html,"https://www.google.com/maps?q=35.358643,-79.795883","parts, retail",,OSM,node/10921735628,35.3586425,-79.795883
autozone-nc-9,AutoZone,Parts Shops and 4x4 Retailers,Charlotte,NC,"10020, Albemarle Road, Charlotte, NC, 28227",+17045730253,https://www.autozone.com/locations/nc/charlotte/10020-albemarle-rd.html,"https://www.google.com/maps?q=35.208135,-80.673510","parts, retail",,OSM,node/11606610555,35.2081354,-80.6735099
autozone-nc-35,AutoZone,Parts Shops and 4x4 Retailers,Morrisville,NC,"1017, Morrisville Carpenter Road;Morrisvile-Carpenter Rd, Morrisville, NC, 27560",+1-919-467-1971,https://www.autozone.com/locations/nc/morrisville/1017-morrisville-carpenter-rd.html,"https://www.google.com/maps?q=35.819193,-78.845824","parts, retail",,OSM,way/207540510,35.8191927,-78.845824
autozone-nc-36,AutoZone,Parts Shops and 4x4 Retailers,Apex,NC,"1100, East Williams Street, Apex, NC, 27502",+1-919-367-2902,https://www.autozone.com/locations/nc/apex/1100-e-williams-st.html,"https://www.google.com/maps?q=35.720076,-78.844353","parts, retail",,OSM,way/249022084,35.7200756,-78.8443532
autozone-nc-37,AutoZone,Parts Shops and 4x4 Retailers,Winterville,NC,"4225, Winterville Parkway, Winterville, NC, 28590",+12527561482,https://www.autozone.com/locations/nc/winterville/4225-winterville-pkwy.html,"https://www.google.com/maps?q=35.547032,-77.404415","parts, retail",,OSM,way/253109534,35.5470315,-77.4044148
autozone-nc-39,AutoZone,Parts Shops and 4x4 Retailers,Weaverville,NC,"52, Weaver Boulevard, Weaverville, NC, 28787",+1 828-645-8805,https://www.autozone.com/locations/nc/weaverville/52-weaver-blvd.html,"https://www.google.com/maps?q=35.702669,-82.563027","parts, retail",,OSM,way/288818644,35.7026689,-82.5630266
autozone-nc-40,AutoZone,Parts Shops and 4x4 Retailers,Morganton,NC,"220, West Fleming Drive, Morganton, NC, 28655",+18284334533,https://www.autozone.com/locations/nc/morganton/220-w-fleming-dr.html,"https://www.google.com/maps?q=35.736461,-81.680769","parts, retail",,OSM,way/320088870,35.7364607,-81.6807687
autozone-nc-42,AutoZone,Parts Shops and 4x4 Retailers,Louisburg,NC,"334, South Bickett Boulevard, Louisburg, NC, 27549",+1-919-340-4429,https://www.autozone.com/locations/nc/louisburg/334-s-bickett-blvd.html,"https://www.google.com/maps?q=36.089036,-78.302353","parts, retail",,OSM,way/394887347,36.0890358,-78.3023534
autozone-nc-45,AutoZone,Parts Shops and 4x4 Retailers,Fuquay-Varina,NC,"1120, North Main Street, Fuquay-Varina, NC, 27526",+19195576749,https://www.autozone.com/locations/nc/fuquay-varina/1120-n-main-st.html,"https://www.google.com/maps?q=35.591351,-78.783683","parts, retail",,OSM,way/440398689,35.5913512,-78.7836832
autozone-nc-46,AutoZone,Parts Shops and 4x4 Retailers,Garner,NC,"535, US 70 East, Garner, NC, 27529",+19197795394,https://www.autozone.com/locations/nc/garner/535-us-70-hwy-e.html,"https://www.google.com/maps?q=35.699034,-78.591147","parts, retail",,OSM,way/442783144,35.6990343,-78.5911468
autozone-nc-49,AutoZone,Parts Shops and 4x4 Retailers,Norlina,NC,"100, Yancey Road, Norlina, NC, 27563",+1-252-456-2970,https://www.autozone.com/locations/nc/norlina/100-yancey-rd.html,"https://www.google.com/maps?q=36.435782,-78.185187","parts, retail",,OSM,way/561024586,36.4357823,-78.1851871
autozone-nc-50,AutoZone,Parts Shops and 4x4 Retailers,Conover,NC,"1225, NC-16, Conover, NC, 28613",+1-828-468-6154,https://www.autozone.com/locations/nc/conover/1225-n-nc-hwy-16.html,"https://www.google.com/maps?q=35.725395,-81.209313","parts, retail",,OSM,way/562641850,35.7253948,-81.2093133
autozone-nc-53,AutoZone,Parts Shops and 4x4 Retailers,West Jefferson,NC,"1368, Mount Jefferson Road, West Jefferson, NC, 28694",+13362463199,https://www.autozone.com/locations/nc/west-jefferson/1368-mount-jefferson-rd.html,"https://www.google.com/maps?q=36.392907,-81.482324","parts, retail",,OSM,way/651352342,36.3929068,-81.4823237
autozone-nc-54,AutoZone,Parts Shops and 4x4 Retailers,Benson,NC,"12350, NC 210 Highway, Benson, NC, 27504",+19192090167,https://www.autozone.com/locations/nc/benson/12350-nc-highway-210.html,"https://www.google.com/maps?q=35.517051,-78.562650","parts, retail",,OSM,way/715552446,35.5170506,-78.5626496
autozone-nc-55,AutoZone,Parts Shops and 4x4 Retailers,Mount Airy,NC,"1949, Rockford Street, Mount Airy, NC, 27030",+13367192036,https://www.autozone.com/locations/nc/mount-airy/1949-rockford-st.html,"https://www.google.com/maps?q=36.482359,-80.612994","parts, retail",,OSM,way/770730288,36.482359,-80.6129938
autozone-nc-58,AutoZone,Parts Shops and 4x4 Retailers,Zebulon,NC,"105, West Gannon Avenue, Zebulon, NC, 27597",+19192693122,https://www.autozone.com/locations/nc/zebulon/105-w-gannon-ave.html,"https://www.google.com/maps?q=35.823468,-78.315440","parts, retail",,OSM,way/830126829,35.823468,-78.3154405
autozone-nc-59,AutoZone,Parts Shops and 4x4 Retailers,Mayodan,NC,"6860, NC 135, Mayodan, NC, 27027",+1-336-445-0036,https://www.autozone.com/locations/nc/mayodan/6860-nc-highway-135.html,"https://www.google.com/maps?q=36.415051,-79.940456","parts, retail",,OSM,way/940786939,36.4150508,-79.9404562
autozone-nc-60,AutoZone,Parts Shops and 4x4 Retailers,Selma,NC,"1170, South Pollock Street, Selma, NC, 27576",+19842233000,https://www.autozone.com/locations/nc/selma/1170-s-pollock-st.html,"https://www.google.com/maps?q=35.527767,-78.295233","parts, retail",,OSM,way/945647095,35.5277668,-78.2952331
autozone-nc-31,AutoZone,Parts Shops and 4x4 Retailers,Albemarle,NC,"631, NC 24 27 Bypass East, Albemarle, NC, 28001",+1 704 985 1452,https://www.autozone.com/locations/nc/albemarle/631-nc-24.html,"https://www.google.com/maps?q=35.344442,-80.173923","parts, retail",,OSM,way/1020160577,35.3444419,-80.1739231
autozone-nc-32,AutoZone,Parts Shops and 4x4 Retailers,Burnsville,NC,"701, West Main Street, Burnsville, NC, 28714",+18285366026,https://www.autozone.com/locations/nc/burnsville/701-w-main-st.html,"https://www.google.com/maps?q=35.913227,-82.313115","parts, retail",,OSM,way/1100717717,35.9132266,-82.3131155
autozone-nc-33,AutoZone,Parts Shops and 4x4 Retailers,Jacksonville,NC,"404, South Marine Boulevard, Jacksonville, NC, 28540",+19104557300,https://www.autozone.com/locations/nc/jacksonville/404-s-marine-blvd.html,"https://www.google.com/maps?q=34.752468,-77.446414","parts, retail",,OSM,way/1127391817,34.7524678,-77.4464138
autozone-nc-34,AutoZone,Parts Shops and 4x4 Retailers,Lillington,NC,"1593, North Main Street, Lillington, NC, 27546",+1-910-985-8011,https://www.autozone.com/locations/nc/lillington/1593-n-main-st.html,"https://www.google.com/maps?q=35.419602,-78.802806","parts, retail",,OSM,way/1189877095,35.4196018,-78.802806
autozone-nc-30,AutoZone,Parts Shops and 4x4 Retailers,,NC,"NC, 27587",+1-919-554-8023,https://www.autozone.com/locations/nc/wake-forest/2223-s-main-st.html,"https://www.google.com/maps?q=35.946357,-78.536576","parts, retail, 4x4",4x4 focused,OSM,node/9858987317,35.9463571,-78.5365756
autozone-nc-10,AutoZone,Parts Shops and 4x4 Retailers,King,NC,"481, South Main Street, King, NC, 27021",,https://www.autozone.com/locations/nc/king/481-s-main-st.html,"https://www.google.com/maps?q=36.271858,-80.361151","parts, retail",,OSM,node/3297778261,36.2718579,-80.3611506
autozone-nc-11,AutoZone,Parts Shops and 4x4 Retailers,High Point,NC,"2709, North Main Street, High Point, NC",,https://www.autozone.com/locations/nc/high-point/2709-n-main-st.html,"https://www.google.com/maps?q=35.993509,-80.031232","parts, retail",,OSM,node/3417400677,35.9935091,-80.0312322
autozone-nc-12,AutoZone,Parts Shops and 4x4 Retailers,Greensboro,NC,"4407, High Point Road, Greensboro, NC",+1-336-292-5035,https://www.autozone.com/locations/nc/greensboro/4407-w-gate-city-blvd.html,"https://www.google.com/maps?q=36.033908,-79.865270","parts, retail",,OSM,node/3418334352,36.0339078,-79.8652697
autozone-nc-13,AutoZone,Parts Shops and 4x4 Retailers,Mooresville,NC,"662, West Mclelland Avenue, Mooresville, NC, 28115",,https://www.autozone.com/locations/nc/mooresville/662-w-mclelland-ave.html,"https://www.google.com/maps?q=35.587205,-80.826534","parts, retail",,OSM,node/4059325373,35.5872048,-80.8265345
autozone-nc-21,AutoZone,Parts Shops and 4x4 Retailers,Whiteville,NC,"1202, South Madison Street, Whiteville, NC, 28472",,https://www.autozone.com/locations/nc/whiteville/1202-s-madison-st.html,"https://www.google.com/maps?q=34.315029,-78.708207","parts, retail",,OSM,node/7212117329,34.3150286,-78.7082066
autozone-nc-8,AutoZone,Parts Shops and 4x4 Retailers,Newton Grove,NC,"310, Circle Drive, Newton Grove, NC, 28366",,https://www.autozone.com/locations/nc/newton-grove/310-e-circle-st.html,"https://www.google.com/maps?q=35.247653,-78.354668","parts, retail",,OSM,node/11303621821,35.2476531,-78.3546683
autozone-nc-38,AutoZone,Parts Shops and 4x4 Retailers,Asheville,NC,"1195, Tunnel Road, Asheville, NC, 28805",,https://www.autozone.com/locations/nc/asheville/1195-tunnel-rd.html,"https://www.google.com/maps?q=35.586724,-82.485084","parts, retail",,OSM,way/268935272,35.5867236,-82.4850845
autozone-nc-41,AutoZone,Parts Shops and 4x4 Retailers,Matthews,NC,"11300, East Independence Boulevard, Matthews, NC, 28105",,https://www.autozone.com/locations/nc/matthews/11300-e-independence-blvd.html,"https://www.google.com/maps?q=35.117415,-80.697284","parts, retail",,OSM,way/323179551,35.1174154,-80.6972842
autozone-nc-43,AutoZone,Parts Shops and 4x4 Retailers,Southport,NC,"5091, Southport-Supply Road Southeast, Southport, NC, 28461",,https://www.autozone.com/locations/nc/southport/5091-southport-supply-rd-se.html,"https://www.google.com/maps?q=33.951306,-78.046130","parts, retail",,OSM,way/399081699,33.9513064,-78.0461302
autozone-nc-44,AutoZone,Parts Shops and 4x4 Retailers,Knightdale,NC,"7206, US 64 East, Knightdale, NC, 27525",,https://www.autozone.com/locations/nc/knightdale/7205-knightdale-blvd.html,"https://www.google.com/maps?q=35.799135,-78.486042","parts, retail",,OSM,way/430674831,35.7991348,-78.4860416
autozone-nc-47,AutoZone,Parts Shops and 4x4 Retailers,Kill Devil Hills,NC,"1222, South Croatan Highway, Kill Devil Hills, NC, 27948",,https://www.autozone.com/locations/nc/kill-devil-hills/1214-s-croatan-hwy.html,"https://www.google.com/maps?q=36.001810,-75.654472","parts, retail",,OSM,way/515542345,36.0018101,-75.6544718
autozone-nc-48,AutoZone,Parts Shops and 4x4 Retailers,Durham,NC,"4417, Fayetteville Road, Durham, NC, 27713",,https://www.autozone.com/locations/nc/durham/4416-fayetteville-st.html,"https://www.google.com/maps?q=35.940783,-78.906972","parts, retail",,OSM,way/547542903,35.9407834,-78.9069717
autozone-nc-51,AutoZone,Parts Shops and 4x4 Retailers,Chapel Hill,NC,"1790, Fordham Boulevard, Chapel Hill, NC, 27517",,https://www.autozone.com/locations/nc/chapel-hill/1790-fordham-blvd.html,"https://www.google.com/maps?q=35.943765,-79.013280","parts, retail",,OSM,way/580683960,35.9437649,-79.0132802
autozone-nc-52,AutoZone,Parts Shops and 4x4 Retailers,Sanford,NC,"2303, South Horner Boulevard, Sanford, NC, 27330",,https://www.autozone.com/locations/nc/sanford/2303-s-horner-blvd.html,"https://www.google.com/maps?q=35.460876,-79.146482","parts, retail",,OSM,way/628666692,35.4608761,-79.1464822
autozone-nc-56,AutoZone,Parts Shops and 4x4 Retailers,Shelby,NC,"721, South Lafayette Street, Shelby, NC, 28150",,https://www.autozone.com/locations/nc/shelby/721-s-lafayette-st.html,"https://www.google.com/maps?q=35.281368,-81.540513","parts, retail",,OSM,way/773022700,35.281368,-81.540513
autozone-nc-57,AutoZone,Parts Shops and 4x4 Retailers,Hillsborough,NC,"364, South Churton Street, Hillsborough, NC, 27278",,https://www.autozone.com/locations/nc/hillsborough/364-s-churton-st.html,"https://www.google.com/maps?q=36.059366,-79.104219","parts, retail",,OSM,way/797795939,36.059366,-79.1042195
autozone-auto-parts-nc,AutoZone Auto Parts,Parts Shops and 4x4 Retailers,Raleigh,NC,"3220, South Wilmington Street, Raleigh, NC, 27603",+19197723006,https://www.autozone.com/locations/nc/raleigh/3220-s-wilmington-st.html?cmpid=LOC:US:EN:AD:NL:1000000:GEN:428,"https://www.google.com/maps?q=35.736162,-78.651687","parts, retail",,OSM,node/13004700420,35.7361615,-78.6516868
autozone-auto-parts-nc-2,AutoZone Auto Parts,Parts Shops and 4x4 Retailers,,NC,"1043, Charlotte Highway, NC, 28166",+1-704-528-4101,https://www.autozone.com/locations/nc/troutman/1043-charlotte-hwy.html,"https://www.google.com/maps?q=35.670119,-80.853121","parts, retail",,OSM,node/13564886701,35.670119,-80.853121
autozone-auto-parts-nc-3,AutoZone Auto Parts,Parts Shops and 4x4 Retailers,Goldsboro,NC,"1324, West Grantham Street, Goldsboro, NC, 27530",+1-919-988-6010,,"https://www.google.com/maps?q=35.400999,-78.017407","parts, retail",,OSM,node/7359038625,35.4009986,-78.0174066
b-b-used-auto-parts-nc,B & B Used Auto Parts,Parts Shops and 4x4 Retailers,,NC,NC,,https://bandbusedautoparts.wixsite.com/home,"https://www.google.com/maps?q=35.084385,-78.964412","parts, retail",,OSM,way/440110051,35.084385,-78.9644122
b-h-used-auto-parts-nc,B & H Used Auto Parts,Parts Shops and 4x4 Retailers,Marion,NC,"3585, US-70, Marion, NC, 28752",+1-828-652-2256,,"https://www.google.com/maps?q=35.704222,-81.952062","parts, retail",,OSM,node/7188506584,35.7042222,-81.9520624
bakersville-auto-plus-nc,Bakersville Auto Plus,Parts Shops and 4x4 Retailers,Bakersville,NC,"43, Crimson Laurel Way, Bakersville, NC, 28705",+18286882114,,"https://www.google.com/maps?q=36.014997,-82.157524","parts, retail",,OSM,way/614158451,36.014997,-82.1575241
bill-jones-tire-services-nc,Bill Jones Tire Services,Parts Shops and 4x4 Retailers,Garner,NC,"200, Vandora Springs Road, Garner, NC, 27529",+19197724344,,"https://www.google.com/maps?q=35.712049,-78.621745","parts, retail",,OSM,way/614926340,35.7120493,-78.6217451
bill-pyatt-auto-parts-nc,Bill Pyatt Auto Parts,Parts Shops and 4x4 Retailers,Marion,NC,"3110, US-70, Marion, NC, 28752",+1-828-652-4929,,"https://www.google.com/maps?q=35.702458,-81.961750","parts, retail",,OSM,node/7188538053,35.7024578,-81.9617496
bivens-alternators-and-starters-nc,Bivens Alternators and Starters,Parts Shops and 4x4 Retailers,,NC,NC,+1-336-249-1788,https://bivensalternators.com/,"https://www.google.com/maps?q=35.828786,-80.247060","parts, retail",,OSM,node/6322230436,35.8287858,-80.2470596
carolina-custom-hot-rod-nc,Carolina Custom Hot Rod,Parts Shops and 4x4 Retailers,Clinton,NC,"4580, US-421, Clinton, NC, 28328",+19105646123,,"https://www.google.com/maps?q=35.052983,-78.373686","parts, retail",,OSM,way/1057901367,35.0529828,-78.3736861
carquest-nc-2,Carquest,Parts Shops and 4x4 Retailers,Buxton,NC,"46813, North Carolina Highway 12, Buxton, NC, 27920",,https://www.carquest.com/stores/nc/buxton/5723,"https://www.google.com/maps?q=35.264767,-75.522133","parts, retail",,OSM,node/6632170195,35.2647671,-75.5221328
carquest-nc-3,Carquest,Parts Shops and 4x4 Retailers,Beaufort,NC,"1604, Live Oak Street, Beaufort, NC, 28516",+1-252-728-4044,,"https://www.google.com/maps?q=34.727569,-76.641155","parts, retail",,OSM,node/8610921364,34.7275686,-76.641155
carquest-nc-4,Carquest,Parts Shops and 4x4 Retailers,Erwin,NC,"1401, Denim Drive, Erwin, NC, 28339",+19108927480,,"https://www.google.com/maps?q=35.321784,-78.658154","parts, retail",,OSM,node/9977039663,35.3217839,-78.6581542
carquest-nc,Carquest,Parts Shops and 4x4 Retailers,Washington,NC,"400, Plymouth Street, Washington, NC, 27889",+12529751331,,"https://www.google.com/maps?q=35.555659,-77.069325","parts, retail",,OSM,node/10296982421,35.5556587,-77.0693251
carquest-nc-5,Carquest,Parts Shops and 4x4 Retailers,Sparta,NC,"256, North Main Street, Sparta, NC, 28675",+13363725545,,"https://www.google.com/maps?q=36.508204,-81.123944","parts, retail",,OSM,way/631915698,36.508204,-81.1239441
carquest-nc-6,Carquest,Parts Shops and 4x4 Retailers,Norlina,NC,"110, US-1, Norlina, NC, 27563",+1-252-456-3937,,"https://www.google.com/maps?q=36.444572,-78.201470","parts, retail",,OSM,way/639208530,36.4445723,-78.2014699
carquest-nc-7,Carquest,Parts Shops and 4x4 Retailers,Williamston,NC,"206, West Boulevard, Williamston, NC, 27892",+12527924189,,"https://www.google.com/maps?q=35.841968,-77.069153","parts, retail",,OSM,way/728096693,35.841968,-77.0691525
carquest-auto-parts-tractor-auto-supply-nc,Carquest Auto Parts - Tractor & Auto Supply,Parts Shops and 4x4 Retailers,Dunn,NC,"102, Carolina Drive, Dunn, NC, 28334",+1-910-892-6141,,"https://www.google.com/maps?q=35.314473,-78.601090","parts, retail",,OSM,node/10712367338,35.3144733,-78.6010899
castle-hayne-auto-parts-nc,Castle Hayne Auto Parts,Parts Shops and 4x4 Retailers,Castle Hayne,NC,"4, Castle Avenue, Castle Hayne, NC, 28429",+1-910-675-3341,,"https://www.google.com/maps?q=34.355337,-77.899553","parts, retail",,OSM,way/896064498,34.3553373,-77.8995528
cyrell-s-auto-supply-nc,Cyrell's Auto Supply,Parts Shops and 4x4 Retailers,Tabor City,NC,"209, Green Sea Road, Tabor City, NC, 28463",+1-910-653-4129,,"https://www.google.com/maps?q=34.143986,-78.879056","parts, retail",,OSM,node/2818133625,34.1439856,-78.8790557
eastern-auto-salvage-nc,Eastern Auto Salvage,Parts Shops and 4x4 Retailers,Biscoe,NC,"232, McCaskill Road, Biscoe, NC, 27209",+18009720226,,"https://www.google.com/maps?q=35.337555,-79.787074","parts, retail, salvage",,OSM,node/10921777926,35.3375548,-79.7870743
eastern-automotive-inc-nc,Eastern Automotive Inc,Parts Shops and 4x4 Retailers,Four Oaks,NC,"1551, Lees Union Church Road, Four Oaks, NC, 27524",+1-919-934-4101,,"https://www.google.com/maps?q=35.385976,-78.372485","parts, retail",,OSM,node/7298019268,35.3859765,-78.3724853
edward-s-automotive-products-nc,Edward's Automotive Products,Parts Shops and 4x4 Retailers,Haw River,NC,"309, East Main Street, Haw River, NC, 27258",+1-336-270-4602,,"https://www.google.com/maps?q=36.091339,-79.364199","parts, retail",,OSM,way/1126098020,36.0913393,-79.3641993
exide-technologies-nc,Exide Technologies,Parts Shops and 4x4 Retailers,Clayton,NC,"104, North Tech Drive, Clayton, NC, 27527",+1-919-553-3578,,"https://www.google.com/maps?q=35.611290,-78.415383","parts, retail",,OSM,way/790395719,35.6112896,-78.4153826
fastlane-motor-sports-nc,Fastlane Motor Sports,Parts Shops and 4x4 Retailers,Benson,NC,"46, Last Cast Drive, Benson, NC, 27504",+19199899377,,"https://www.google.com/maps?q=35.525141,-78.559476","parts, retail",,OSM,way/624786655,35.5251413,-78.5594762
fisher-auto-parts-nc,Fisher Auto Parts,Parts Shops and 4x4 Retailers,Scotland Neck,NC,"312, South Main Street, Scotland Neck, NC, 27874",+1-252-826-2183,,"https://www.google.com/maps?q=36.120360,-77.425096","parts, retail",,OSM,node/9667775604,36.1203597,-77.4250956
ford-auto-parts-inc-nc,Ford Auto Parts Inc,Parts Shops and 4x4 Retailers,Robbinsville,NC,"33, Old Sweetwater Road, Robbinsville, NC, 28771",+18284796410,,"https://www.google.com/maps?q=35.323231,-83.790757","parts, retail",,OSM,node/10793162377,35.3232307,-83.7907567
gbodyled-nc,GBodyLED,Parts Shops and 4x4 Retailers,,NC,"7207, Main Street, NC",+1-252-377-2530,,"https://www.google.com/maps?q=35.800705,-77.374019","parts, retail",,OSM,node/10261539292,35.8007045,-77.3740187
general-auto-parts-llc-nc,General Auto Parts LLC,Parts Shops and 4x4 Retailers,Warsaw,NC,"112, South Railroad Street, Warsaw, NC, 28398",+19102900245,,"https://www.google.com/maps?q=34.998239,-78.094053","parts, retail",,OSM,way/1220652981,34.9982388,-78.094053
high-point-auto-salvage-nc,High Point Auto Salvage,Parts Shops and 4x4 Retailers,High Point,NC,"2711, West English Road, High Point, NC, 27262",+1-336-889-9062,https://www.highpointautosalvage.com/,"https://www.google.com/maps?q=35.929630,-80.039761","parts, retail, salvage",,OSM,node/6507376511,35.9296297,-80.0397608
holts-tire-automotive-nc,Holts Tire & Automotive,Parts Shops and 4x4 Retailers,Ramseur,NC,"5682, Richard K. Pugh Highway, Ramseur, NC, 27316",+1-336-824-8915,,"https://www.google.com/maps?q=35.729727,-79.679066","parts, retail",,OSM,node/7282525552,35.7297272,-79.6790662
interstate-batteries-nc-2,Interstate Batteries,Parts Shops and 4x4 Retailers,Angier,NC,"7450, NC-210, Angier, NC, 27501",+1-919-639-4340,https://www.interstatebatteries.com/locations/interstate-batteries-of-coastal-plains-nc,"https://www.google.com/maps?q=35.492723,-78.759998","parts, retail",,OSM,node/8369339787,35.4927233,-78.7599981
interstate-batteries-nc,Interstate Batteries,Parts Shops and 4x4 Retailers,Candler,NC,"1045, Smokey Park Highway, Candler, NC, 28715",+18286332660,,"https://www.google.com/maps?q=35.545207,-82.661337","parts, retail",,OSM,node/10297047269,35.545207,-82.6613374
jim-west-sons-auto-recycling-nc,Jim West & Sons Auto Recycling,Parts Shops and 4x4 Retailers,Asheville,NC,"852, New Leicester Highway, Asheville, NC, 28806",+1-828-683-9186,,"https://www.google.com/maps?q=35.614381,-82.647907","parts, retail",,OSM,node/5436979333,35.6143811,-82.6479072
jt-outfitters-nc,JT Outfitters,Parts Shops and 4x4 Retailers,Walnut Cove,NC,"3134, NC-89, Walnut Cove, NC, 27052",+1-336-591-1108,,"https://www.google.com/maps?q=36.357451,-80.171968","parts, retail",,OSM,node/7346159733,36.3574514,-80.1719683
kustom-car-toys-nc,Kustom Car Toys,Parts Shops and 4x4 Retailers,,NC,"2200, West Meadowview Road, NC",+1-336-218-5795,https://www.kustomcartoys.com/,"https://www.google.com/maps?q=36.046829,-79.838270","parts, retail",,OSM,node/8455787312,36.0468293,-79.8382697
lambert-s-motor-repairs-nc,Lambert's Motor Repairs,Parts Shops and 4x4 Retailers,Benson,NC,"112, West Lambert Drive, Benson, NC, 27504",+1-919-894-8711,,"https://www.google.com/maps?q=35.382207,-78.548281","parts, retail",,OSM,node/9897038025,35.3822071,-78.5482814
mac-fab-beadlocks-nc,MAC-FAB Beadlocks,Parts Shops and 4x4 Retailers,Goldston,NC,"68, Colonial Avenue, Goldston, NC, 27252",+18442575502,,"https://www.google.com/maps?q=35.592584,-79.329646","parts, retail, welding",,OSM,node/5782657727,35.5925842,-79.3296464
miller-parts-and-paint-inc-nc,"Miller Parts and Paint, INC.",Parts Shops and 4x4 Retailers,Benson,NC,"120, West Main Street, Benson, NC, 27504",+1-919-894-2111,,"https://www.google.com/maps?q=35.382030,-78.548757","parts, retail",,OSM,node/7370077371,35.3820295,-78.5487566
mr-tire-nc-2,Mr. Tire,Parts Shops and 4x4 Retailers,Boone,NC,"167, Jefferson Road, Boone, NC, 28607",+1 828-278-3007,https://www.mrtire.com/,"https://www.google.com/maps?q=36.220005,-81.659954","parts, retail, repair, mechanic",,OSM,way/744535928,36.2200049,-81.659954
mr-tire-nc,Mr. Tire,Parts Shops and 4x4 Retailers,,NC,"1799, West Williams Street, NC",+1 919 367 1112,,"https://www.google.com/maps?q=35.760511,-78.876765","parts, retail, repair, mechanic",,OSM,way/32076716,35.7605111,-78.8767646
napa-auto-parts-nc-11,NAPA Auto Parts,Parts Shops and 4x4 Retailers,Greensboro,NC,"3827, West Gate City Boulevard, Greensboro, NC, 27407",+1-336-294-6060,https://www.napaonline.com/,"https://www.google.com/maps?q=36.037306,-79.857388","parts, retail",,OSM,node/4108844711,36.0373063,-79.857388
napa-auto-parts-nc-7,NAPA Auto Parts,Parts Shops and 4x4 Retailers,Vass,NC,"3383, US 1 BUS, Vass, NC, 28394",+19102454167,https://www.napaonline.com/en/nc/vass/store/21468,"https://www.google.com/maps?q=35.257837,-79.281355","parts, retail",,OSM,node/13543446511,35.257837,-79.281355
napa-auto-parts-nc-6,NAPA Auto Parts,Parts Shops and 4x4 Retailers,,NC,"3391, Battleground Avenue, NC",+1-336-282-9500,https://www.napaonline.com/en/NC/Greensboro/store/28038,"https://www.google.com/maps?q=36.121898,-79.845587","parts, retail",,OSM,node/11899199431,36.1218977,-79.845587
napa-auto-parts-nc-8,NAPA Auto Parts,Parts Shops and 4x4 Retailers,Morganton,NC,"208, West Fleming Drive, Morganton, NC, 28655",+18284374011,,"https://www.google.com/maps?q=35.736869,-81.680469","parts, retail",,OSM,node/3265886495,35.736869,-81.680469
napa-auto-parts-nc-9,NAPA Auto Parts,Parts Shops and 4x4 Retailers,Sunset Beach,NC,"1001, Beach Drive Southwest, Sunset Beach, NC, 28468",,https://www.napaonline.com/nc/calabash,"https://www.google.com/maps?q=33.899150,-78.551707","parts, retail",,OSM,node/3671137403,33.8991505,-78.5517071
napa-auto-parts-nc-10,NAPA Auto Parts,Parts Shops and 4x4 Retailers,Harmony,NC,"105, West Memorial Highway, Harmony, NC, 28634",+1-704-546-2645,,"https://www.google.com/maps?q=35.955364,-80.772609","parts, retail",,OSM,node/4059089886,35.9553638,-80.7726091
napa-auto-parts-nc-12,NAPA Auto Parts,Parts Shops and 4x4 Retailers,Four Oaks,NC,"5977, US 301 Highway South, Four Oaks, NC, 27524",+19199632520,,"https://www.google.com/maps?q=35.447085,-78.420444","parts, retail",,OSM,node/6624334560,35.4470851,-78.4204444
napa-auto-parts-nc-13,NAPA Auto Parts,Parts Shops and 4x4 Retailers,Marion,NC,"209, East Court Street, Marion, NC, 28752",+1-828-652-2616,,"https://www.google.com/maps?q=35.685606,-82.005865","parts, retail",,OSM,node/6761209495,35.6856056,-82.0058647
napa-auto-parts-nc-14,NAPA Auto Parts,Parts Shops and 4x4 Retailers,Red Springs,NC,"806, East 4th Avenue, Red Springs, NC, 28377",+1-910-843-3615,,"https://www.google.com/maps?q=34.808977,-79.171422","parts, retail",,OSM,node/7201069585,34.8089771,-79.171422
napa-auto-parts-nc-15,NAPA Auto Parts,Parts Shops and 4x4 Retailers,Yanceyville,NC,"3148, Old 86 Highway, Yanceyville, NC, 27379",+1-336-694-4800,,"https://www.google.com/maps?q=36.431141,-79.358319","parts, retail",,OSM,node/7306087120,36.4311411,-79.3583188
napa-auto-parts-nc-16,NAPA Auto Parts,Parts Shops and 4x4 Retailers,Wendell,NC,"3100, Wendell Boulevard, Wendell, NC, 27591",+1-919-365-6314,,"https://www.google.com/maps?q=35.787533,-78.375959","parts, retail",,OSM,node/7389707768,35.7875331,-78.3759588
napa-auto-parts-nc-17,NAPA Auto Parts,Parts Shops and 4x4 Retailers,Coats,NC,"120, East Stewart Street, Coats, NC, 27521",+1-910-897-5567,,"https://www.google.com/maps?q=35.412453,-78.670793","parts, retail",,OSM,node/7393098330,35.4124527,-78.670793
napa-auto-parts-nc-18,NAPA Auto Parts,Parts Shops and 4x4 Retailers,Washington,NC,"1218, John Small Avenue, Washington, NC, 27889",+12529465188,,"https://www.google.com/maps?q=35.547182,-77.034887","parts, retail",,OSM,node/7978143774,35.547182,-77.0348873
napa-auto-parts-nc-19,NAPA Auto Parts,Parts Shops and 4x4 Retailers,Black Mountain,NC,"415, West State Street, Black Mountain, NC, 28711",+1-828-669-8468,,"https://www.google.com/maps?q=35.614030,-82.324888","parts, retail",,OSM,node/8397626039,35.6140305,-82.3248876
napa-auto-parts-nc-20,NAPA Auto Parts,Parts Shops and 4x4 Retailers,Scotland Neck,NC,"712, Main Street, Scotland Neck, NC, 27874",+1-252-826-2121,,"https://www.google.com/maps?q=36.126116,-77.423589","parts, retail",,OSM,node/9667758255,36.1261159,-77.4235893
napa-auto-parts-nc-21,NAPA Auto Parts,Parts Shops and 4x4 Retailers,Carthage,NC,"3733, US 15, US 501, Carthage, NC, 28327",+19107222183,,"https://www.google.com/maps?q=35.344010,-79.391351","parts, retail",,OSM,node/9855820868,35.3440098,-79.391351
napa-auto-parts-nc,NAPA Auto Parts,Parts Shops and 4x4 Retailers,Rich Square,NC,"305, North Main Street, Rich Square, NC, 27869",+12525394141,,"https://www.google.com/maps?q=36.278100,-77.281539","parts, retail",,OSM,node/10082867842,36.2781003,-77.2815394
napa-auto-parts-nc-2,NAPA Auto Parts,Parts Shops and 4x4 Retailers,Yadkinville,NC,"1101, West Main Street, Yadkinville, NC, 27055",+1-336-679-3181,,"https://www.google.com/maps?q=36.135773,-80.679685","parts, retail",,OSM,node/10312996591,36.1357731,-80.6796848
napa-auto-parts-nc-3,NAPA Auto Parts,Parts Shops and 4x4 Retailers,Richlands,NC,"124, Kinston Highway, Richlands, NC, 28574",+19103242123,,"https://www.google.com/maps?q=34.905802,-77.558715","parts, retail",,OSM,node/10778689991,34.9058024,-77.5587152
napa-auto-parts-nc-4,NAPA Auto Parts,Parts Shops and 4x4 Retailers,Kenansville,NC,"140, Liberty Square Shopping Center, Kenansville, NC, 28349",+19102751842,,"https://www.google.com/maps?q=34.960126,-77.962751","parts, retail",,OSM,node/10779780977,34.9601256,-77.9627508
napa-auto-parts-nc-5,NAPA Auto Parts,Parts Shops and 4x4 Retailers,Asheboro,NC,"182, Dublin Square Road, Asheboro, NC, 27203",+13366252191,,"https://www.google.com/maps?q=35.704484,-79.795058","parts, retail",,OSM,node/10801872330,35.7044844,-79.7950579
napa-auto-parts-nc-24,NAPA Auto Parts,Parts Shops and 4x4 Retailers,Durham,NC,"3785, Guess Road, Durham, NC, 27705",+1-919-471-6557,,"https://www.google.com/maps?q=36.055923,-78.929803","parts, retail",,OSM,way/146313020,36.055923,-78.9298026
napa-auto-parts-nc-25,NAPA Auto Parts,Parts Shops and 4x4 Retailers,Lenoir,NC,"320, Wilkesboro Boulevard Southeast, Lenoir, NC, 28645",+1-828-754-5341,,"https://www.google.com/maps?q=35.915000,-81.518187","parts, retail",,OSM,way/403750823,35.9150002,-81.518187
napa-auto-parts-nc-26,NAPA Auto Parts,Parts Shops and 4x4 Retailers,Spruce Pine,NC,"10994, NC-226, Spruce Pine, NC, 28777",+18287654281,,"https://www.google.com/maps?q=35.904003,-82.075042","parts, retail",,OSM,way/415180532,35.904003,-82.0750424
napa-auto-parts-nc-27,NAPA Auto Parts,Parts Shops and 4x4 Retailers,Farmville,NC,"3801, South Main Street, Farmville, NC, 27828",+12527534177,,"https://www.google.com/maps?q=35.595147,-77.586627","parts, retail",,OSM,way/548444702,35.5951471,-77.5866271
napa-auto-parts-nc-28,NAPA Auto Parts,Parts Shops and 4x4 Retailers,Madison,NC,"916, South Ayersville Road, Madison, NC, 27025",+13365486044,,"https://www.google.com/maps?q=36.404120,-79.977957","parts, retail",,OSM,way/581406833,36.4041198,-79.9779567
napa-auto-parts-nc-29,NAPA Auto Parts,Parts Shops and 4x4 Retailers,Cary,NC,"500, Old Apex Road, Cary, NC, 27511",+1-919-469-0020,,"https://www.google.com/maps?q=35.786898,-78.790288","parts, retail",,OSM,way/614305585,35.7868981,-78.7902878
napa-auto-parts-nc-30,NAPA Auto Parts,Parts Shops and 4x4 Retailers,Sparta,NC,"50, Wee Care Avenue, Sparta, NC, 28675",+13363726272,,"https://www.google.com/maps?q=36.509532,-81.130221","parts, retail",,OSM,way/639717260,36.5095321,-81.1302212
napa-auto-parts-nc-31,NAPA Auto Parts,Parts Shops and 4x4 Retailers,Marshall,NC,"5707, US Highway 25-70, Marshall, NC, 28753",+18286499430,,"https://www.google.com/maps?q=35.812688,-82.673403","parts, retail",,OSM,way/665146647,35.8126878,-82.673403
napa-auto-parts-nc-32,NAPA Auto Parts,Parts Shops and 4x4 Retailers,Pittsboro,NC,"632, East Street, Pittsboro, NC, 27312",+19195334250,,"https://www.google.com/maps?q=35.719488,-79.165694","parts, retail",,OSM,way/780239030,35.7194881,-79.1656937
napa-auto-parts-nc-33,NAPA Auto Parts,Parts Shops and 4x4 Retailers,Zebulon,NC,"1016, North Arendell Avenue, Zebulon, NC, 27597",+19192696131,,"https://www.google.com/maps?q=35.832653,-78.319396","parts, retail",,OSM,way/815103651,35.8326528,-78.3193962
napa-auto-parts-nc-34,NAPA Auto Parts,Parts Shops and 4x4 Retailers,Newton Grove,NC,"305, Raleigh Street, Newton Grove, NC, 28366",+1-910-900-7699,,"https://www.google.com/maps?q=35.245611,-78.356468","parts, retail",,OSM,way/925888754,35.2456114,-78.3564678
napa-auto-parts-nc-35,NAPA Auto Parts,Parts Shops and 4x4 Retailers,Ayden,NC,"4171, South East Avenue, Ayden, NC, 28513",+12527462824,,"https://www.google.com/maps?q=35.471769,-77.415524","parts, retail",,OSM,way/927090831,35.4717686,-77.4155244
napa-auto-parts-nc-36,NAPA Auto Parts,Parts Shops and 4x4 Retailers,Old Fort,NC,"809, East Main Street, Old Fort, NC, 28762",+18286684999,,"https://www.google.com/maps?q=35.637321,-82.171809","parts, retail",,OSM,way/957188333,35.6373206,-82.1718094
napa-auto-parts-nc-22,NAPA Auto Parts,Parts Shops and 4x4 Retailers,Beaufort,NC,"609, Highway 70 Otway, Beaufort, NC, 28516",+12527286688,,"https://www.google.com/maps?q=34.772888,-76.554699","parts, retail",,OSM,way/1065166623,34.7728875,-76.5546985
napa-auto-parts-nc-23,NAPA Auto Parts,Parts Shops and 4x4 Retailers,Sunbury,NC,"21, NC-32, Sunbury, NC, 27979",+1-252-465-8619,,"https://www.google.com/maps?q=36.442583,-76.609783","parts, retail",,OSM,way/1286257313,36.442583,-76.6097828
napa-auto-parts-hayes-auto-supply-nc,NAPA Auto Parts - Hayes Auto Supply,Parts Shops and 4x4 Retailers,Chadbourn,NC,"816, North Brown Street, Chadbourn, NC, 28431",+1-910-654-3146,,"https://www.google.com/maps?q=34.330459,-78.826138","parts, retail",,OSM,node/7321677724,34.3304592,-78.8261378
napa-auto-parts-pamlico-parts-co-nc,NAPA Auto Parts - Pamlico Parts Co,Parts Shops and 4x4 Retailers,Alliance,NC,"13419, NC Highway 55, Alliance, NC, 28509",+12527453912,,"https://www.google.com/maps?q=35.145250,-76.798101","parts, retail",,OSM,way/1392109669,35.1452496,-76.7981011
napa-auto-parts-phillips-auto-parts-inc-nc,"NAPA Auto Parts - Phillips Auto Parts, Inc.",Parts Shops and 4x4 Retailers,Spruce Pine,NC,"7560, US-19 East, Spruce Pine, NC, 28777",+1-828-765-9071,,"https://www.google.com/maps?q=35.928042,-82.027579","parts, retail",,OSM,node/10776403064,35.9280425,-82.0275787
napa-auto-parts-walker-auto-and-truck-nc,NAPA Auto Parts - Walker Auto and Truck,Parts Shops and 4x4 Retailers,Selma,NC,"201, North Raiford Street, Selma, NC, 27576",+1 919 965 3757,,"https://www.google.com/maps?q=35.537142,-78.282815","parts, retail",,OSM,node/6701147787,35.5371416,-78.2828145
napa-auto-parts-walker-auto-and-truck-nc-2,NAPA Auto Parts - Walker Auto and Truck,Parts Shops and 4x4 Retailers,Saint Pauls,NC,"324, South Fifth Street, Saint Pauls, NC, 28384",+19108655105,,"https://www.google.com/maps?q=34.804480,-78.978088","parts, retail",,OSM,node/6988281741,34.8044802,-78.9780875
napa-auto-parts-walker-auto-and-truck-nc-3,NAPA Auto Parts - Walker Auto and Truck,Parts Shops and 4x4 Retailers,Ramseur,NC,"137, King Road, Ramseur, NC, 27316",+13368242711,,"https://www.google.com/maps?q=35.739681,-79.652279","parts, retail",,OSM,node/8886326611,35.7396812,-79.652279
national-speed-nc,National Speed,Parts Shops and 4x4 Retailers,Wilmington,NC,"6779, Gordon Road, Wilmington, NC, 28411",+1 910 332 5901,https://nationalspeedinc.com/,"https://www.google.com/maps?q=34.264309,-77.831089","parts, retail",,OSM,way/331546338,34.2643092,-77.8310893
o-reilly-auto-parts-nc-18,O'Reilly Auto Parts,Parts Shops and 4x4 Retailers,Greensboro,NC,"3714, West Gate City Boulevard, Greensboro, NC, 27407",+1 336-855-5022,https://locations.oreillyauto.com/nc/greensboro/autoparts-2052.html,"https://www.google.com/maps?q=36.039767,-79.851989","parts, retail",,OSM,node/3417622769,36.0397667,-79.8519886
o-reilly-auto-parts-nc-22,O'Reilly Auto Parts,Parts Shops and 4x4 Retailers,Rockwell,NC,"712, West Main Street, Rockwell, NC, 28138",+1-704-209-7334,https://locations.oreillyauto.com/nc/rockwell/autoparts-5262.html,"https://www.google.com/maps?q=35.556597,-80.413570","parts, retail",,OSM,node/6550207581,35.5565968,-80.4135703
o-reilly-auto-parts-nc-23,O'Reilly Auto Parts,Parts Shops and 4x4 Retailers,Wilkesboro,NC,"1911, US-421, Wilkesboro, NC, 28697",+13366672759,https://locations.oreillyauto.com/nc/wilkesboro/autoparts-1098.html,"https://www.google.com/maps?q=36.149548,-81.198528","parts, retail",,OSM,node/6594226351,36.1495479,-81.1985281
o-reilly-auto-parts-nc-24,O'Reilly Auto Parts,Parts Shops and 4x4 Retailers,Clayton,NC,"10736, US 70 Business West;NC 42 West, Clayton, NC, 27520",+1-919-359-8030,https://locations.oreillyauto.com/nc/clayton/autoparts-2495.html,"https://www.google.com/maps?q=35.645092,-78.458823","parts, retail",,OSM,node/6597333882,35.6450922,-78.458823
o-reilly-auto-parts-nc-28,O'Reilly Auto Parts,Parts Shops and 4x4 Retailers,Black Mountain,NC,"507, West State Street, Black Mountain, NC, 28711",+1-828-669-2244,https://locations.oreillyauto.com/nc/blackmountain/autoparts-2244.html,"https://www.google.com/maps?q=35.612618,-82.328295","parts, retail",,OSM,node/7237495546,35.6126178,-82.328295
o-reilly-auto-parts-nc-29,O'Reilly Auto Parts,Parts Shops and 4x4 Retailers,Mebane,NC,"1903, NC-119, Mebane, NC, 27302",+1-919-304-0707,https://locations.oreillyauto.com/nc/mebane/autoparts-2401.html,"https://www.google.com/maps?q=36.062846,-79.301409","parts, retail",,OSM,node/7331515171,36.0628457,-79.3014089
o-reilly-auto-parts-nc-30,O'Reilly Auto Parts,Parts Shops and 4x4 Retailers,Kenly,NC,"104, South Church Street, Kenly, NC, 27542",+1-919-284-0778,https://locations.oreillyauto.com/nc/kenly/autoparts-4556.html,"https://www.google.com/maps?q=35.595448,-78.125205","parts, retail",,OSM,node/7354637974,35.5954478,-78.1252052
o-reilly-auto-parts-nc-31,O'Reilly Auto Parts,Parts Shops and 4x4 Retailers,Wendell,NC,"2930, Wendell Boulevard, Wendell, NC, 27591",+1-919-626-4438,https://locations.oreillyauto.com/nc/wendell/autoparts-5021.html,"https://www.google.com/maps?q=35.791463,-78.378889","parts, retail",,OSM,node/7389727687,35.7914629,-78.3788892
o-reilly-auto-parts-nc-32,O'Reilly Auto Parts,Parts Shops and 4x4 Retailers,Wallace,NC,"5642, NC-41, Wallace, NC, 28466",+19102852121,https://locations.oreillyauto.com/nc/wallace/autoparts-3951.html,"https://www.google.com/maps?q=34.741029,-77.972523","parts, retail",,OSM,node/7600771304,34.7410294,-77.9725229
o-reilly-auto-parts-nc-33,O'Reilly Auto Parts,Parts Shops and 4x4 Retailers,Laurinburg,NC,"1123, South Main Street, Laurinburg, NC, 28352",+1 910 266 0003,https://locations.oreillyauto.com/nc/laurinburg/autoparts-1992.html,"https://www.google.com/maps?q=34.763299,-79.468959","parts, retail",,OSM,node/7828114564,34.7632986,-79.4689592
o-reilly-auto-parts-nc-34,O'Reilly Auto Parts,Parts Shops and 4x4 Retailers,Dobson,NC,"314, East Atkins Street, Dobson, NC, 27017",+13364433029,https://locations.oreillyauto.com/nc/dobson/autoparts-4857.html,"https://www.google.com/maps?q=36.395656,-80.719072","parts, retail",,OSM,node/7866582073,36.3956559,-80.7190721
o-reilly-auto-parts-nc-36,O'Reilly Auto Parts,Parts Shops and 4x4 Retailers,Goldsboro,NC,"2400, East Ash Street, Goldsboro, NC, 27534",+19197359858,https://locations.oreillyauto.com/nc/goldsboro/autoparts-2334.html,"https://www.google.com/maps?q=35.374940,-77.959097","parts, retail",,OSM,node/9685721828,35.3749397,-77.959097
o-reilly-auto-parts-nc-37,O'Reilly Auto Parts,Parts Shops and 4x4 Retailers,Angier,NC,"33, Shelly Drive, Angier, NC, 27501",+19196392937,https://locations.oreillyauto.com/nc/angier/autoparts-2134.html,"https://www.google.com/maps?q=35.516943,-78.741376","parts, retail",,OSM,node/9718270390,35.5169435,-78.7413755
o-reilly-auto-parts-nc-38,O'Reilly Auto Parts,Parts Shops and 4x4 Retailers,Benson,NC,"10580, NC-50, Benson, NC, 27504",+19192751466,https://locations.oreillyauto.com/nc/angier/autoparts-6519.html,"https://www.google.com/maps?q=35.515465,-78.578674","parts, retail",,OSM,node/9718298537,35.5154648,-78.5786743
o-reilly-auto-parts-nc,O'Reilly Auto Parts,Parts Shops and 4x4 Retailers,Locust,NC,"413, West Main Street, Locust, NC, 28097",+17047812560,https://locations.oreillyauto.com/nc/locust/autoparts-2419.html,"https://www.google.com/maps?q=35.258125,-80.430313","parts, retail",,OSM,node/10084864180,35.2581251,-80.4303135
o-reilly-auto-parts-nc-2,O'Reilly Auto Parts,Parts Shops and 4x4 Retailers,Ramseur,NC,"6501, Jordan Road, Ramseur, NC, 27316",+13368240057,https://locations.oreillyauto.com/nc/ramseur/autoparts-5375.html,"https://www.google.com/maps?q=35.737495,-79.658008","parts, retail",,OSM,node/10240335021,35.737495,-79.6580085
o-reilly-auto-parts-nc-3,O'Reilly Auto Parts,Parts Shops and 4x4 Retailers,Whitsett,NC,"6409, Burlington Road, Whitsett, NC, 27377",+13366031599,https://locations.oreillyauto.com/nc/whitsett/autoparts-6428.html,"https://www.google.com/maps?q=36.063217,-79.606226","parts, retail",,OSM,node/10278438464,36.0632173,-79.6062262
o-reilly-auto-parts-nc-4,O'Reilly Auto Parts,Parts Shops and 4x4 Retailers,Burlington,NC,"2419, North Church Street, Burlington, NC, 27217",+1-336-228-7400,https://locations.oreillyauto.com/nc/burlington/autoparts-2035.html,"https://www.google.com/maps?q=36.092036,-79.392725","parts, retail",,OSM,node/10302064572,36.0920358,-79.3927252
o-reilly-auto-parts-nc-5,O'Reilly Auto Parts,Parts Shops and 4x4 Retailers,Yanceyville,NC,"1740, NC-86 North, Yanceyville, NC, 27379",+1-336-459-3188,https://locations.oreillyauto.com/nc/yanceyville/autoparts-5277.html,"https://www.google.com/maps?q=36.414432,-79.345160","parts, retail",,OSM,node/10304157472,36.414432,-79.3451597
o-reilly-auto-parts-nc-6,O'Reilly Auto Parts,Parts Shops and 4x4 Retailers,Yadkinville,NC,"913, South State Street, Yadkinville, NC, 27055",+1-336-679-2513,https://locations.oreillyauto.com/nc/yadkinville/autoparts-1093.html,"https://www.google.com/maps?q=36.117614,-80.658985","parts, retail",,OSM,node/10312996588,36.117614,-80.6589852
o-reilly-auto-parts-nc-7,O'Reilly Auto Parts,Parts Shops and 4x4 Retailers,Brevard,NC,"480, Rosman Highway, Brevard, NC, 28712",+18288844719,https://locations.oreillyauto.com/nc/brevard/autoparts-6495.html,"https://www.google.com/maps?q=35.222198,-82.744233","parts, retail",,OSM,node/10572966500,35.2221978,-82.7442333
o-reilly-auto-parts-nc-8,O'Reilly Auto Parts,Parts Shops and 4x4 Retailers,Granite Falls,NC,"20, Forlines Road, Granite Falls, NC, 28630",+18285230169,https://locations.oreillyauto.com/nc/granitefalls/autoparts-6404.html,"https://www.google.com/maps?q=35.812328,-81.434710","parts, retail",,OSM,node/10589140890,35.8123279,-81.4347105
o-reilly-auto-parts-nc-9,O'Reilly Auto Parts,Parts Shops and 4x4 Retailers,Canton,NC,"362, New Clyde Highway, Canton, NC, 28716",+18286460337,https://locations.oreillyauto.com/nc/canton/autoparts-3886.html,"https://www.google.com/maps?q=35.533186,-82.854768","parts, retail",,OSM,node/10723724749,35.5331856,-82.8547681
o-reilly-auto-parts-nc-10,O'Reilly Auto Parts,Parts Shops and 4x4 Retailers,Mocksville,NC,"1360, Yadkinville Road, Mocksville, NC, 27028",+13369360100,https://locations.oreillyauto.com/nc/mocksville/autoparts-5104.html,"https://www.google.com/maps?q=35.917763,-80.583308","parts, retail",,OSM,node/10775876469,35.9177632,-80.5833075
o-reilly-auto-parts-nc-11,O'Reilly Auto Parts,Parts Shops and 4x4 Retailers,Richlands,NC,"364, Kinston Highway, Richlands, NC, 28574",+19106015001,https://locations.oreillyauto.com/nc/richlands/autoparts-5272.html,"https://www.google.com/maps?q=34.909496,-77.566884","parts, retail",,OSM,node/10779677277,34.909496,-77.5668844
o-reilly-auto-parts-nc-12,O'Reilly Auto Parts,Parts Shops and 4x4 Retailers,Madison,NC,"1122, Highway Street, Madison, NC, 27025",+13364272940,https://locations.oreillyauto.com/nc/madison/autoparts-4689.html,"https://www.google.com/maps?q=36.402166,-79.969913","parts, retail",,OSM,node/10795266737,36.4021664,-79.9699134
o-reilly-auto-parts-nc-13,O'Reilly Auto Parts,Parts Shops and 4x4 Retailers,Burgaw,NC,"112, US-117 Bypass North, Burgaw, NC, 28425",+19103002041,https://locations.oreillyauto.com/nc/burgaw/autoparts-6311.html,"https://www.google.com/maps?q=34.555802,-77.914659","parts, retail",,OSM,node/10816485288,34.5558017,-77.9146585
o-reilly-auto-parts-nc-14,O'Reilly Auto Parts,Parts Shops and 4x4 Retailers,Biscoe,NC,"113, Sedberry Road, Biscoe, NC, 27209",+19104284010,https://locations.oreillyauto.com/nc/biscoe/autoparts-2146.html,"https://www.google.com/maps?q=35.358734,-79.794453","parts, retail",,OSM,node/10921725006,35.3587344,-79.7944534
o-reilly-auto-parts-nc-16,O'Reilly Auto Parts,Parts Shops and 4x4 Retailers,Whispering Pines,NC,"7435, NC 22, Whispering Pines, NC, 28327",+19106888000,https://locations.oreillyauto.com/en-us/nc/whisperingpines/autoparts-6717.html,"https://www.google.com/maps?q=35.246969,-79.406141","parts, retail",,OSM,node/13352042735,35.246969,-79.4061411
o-reilly-auto-parts-nc-48,O'Reilly Auto Parts,Parts Shops and 4x4 Retailers,Raleigh,NC,"3416, Olympia Drive, Raleigh, NC, 27603",+19196620690,https://locations.oreillyauto.com/nc/raleigh/autoparts-2108.html,"https://www.google.com/maps?q=35.733338,-78.652088","parts, retail",,OSM,way/233787647,35.7333381,-78.652088
o-reilly-auto-parts-nc-49,O'Reilly Auto Parts,Parts Shops and 4x4 Retailers,Lillington,NC,"1054, North Main Street, Lillington, NC, 27546",+1-910-893-6139,https://locations.oreillyauto.com/nc/lillington/autoparts-2167.html,"https://www.google.com/maps?q=35.412637,-78.807948","parts, retail",,OSM,way/255170084,35.4126374,-78.8079477
o-reilly-auto-parts-nc-51,O'Reilly Auto Parts,Parts Shops and 4x4 Retailers,Weaverville,NC,"7, North Buncombe School Road, Weaverville, NC, 28787",+18286455412,https://locations.oreillyauto.com/nc/weaverville/autoparts-4457.html,"https://www.google.com/maps?q=35.712182,-82.559511","parts, retail",,OSM,way/288796030,35.712182,-82.5595111
o-reilly-auto-parts-nc-52,O'Reilly Auto Parts,Parts Shops and 4x4 Retailers,Dunn,NC,"456, East Cumberland Street, Dunn, NC, 28334",+19102303602,https://locations.oreillyauto.com/nc/dunn/autoparts-2450.html,"https://www.google.com/maps?q=35.304974,-78.607696","parts, retail",,OSM,way/311857244,35.3049738,-78.6076955
o-reilly-auto-parts-nc-53,O'Reilly Auto Parts,Parts Shops and 4x4 Retailers,Walkertown,NC,"3070, Old Hollow Road, Walkertown, NC, 27051",+13365952138,https://locations.oreillyauto.com/nc/walkertown/autoparts-2258.html,"https://www.google.com/maps?q=36.168001,-80.149489","parts, retail",,OSM,way/343275320,36.1680014,-80.1494885
o-reilly-auto-parts-nc-54,O'Reilly Auto Parts,Parts Shops and 4x4 Retailers,Morganton,NC,"815, West Fleming Drive, Morganton, NC, 28655",+18283912227,https://locations.oreillyauto.com/nc/morganton/autoparts-5390.html,"https://www.google.com/maps?q=35.733699,-81.708606","parts, retail",,OSM,way/377626779,35.7336991,-81.7086055
o-reilly-auto-parts-nc-55,O'Reilly Auto Parts,Parts Shops and 4x4 Retailers,Louisburg,NC,"336, South Bickett Boulevard, Louisburg, NC, 27549",+1-919-496-1299,https://locations.oreillyauto.com/nc/louisburg/autoparts-2147.html,"https://www.google.com/maps?q=36.088586,-78.302481","parts, retail",,OSM,way/394887348,36.088586,-78.3024812
o-reilly-auto-parts-nc-56,O'Reilly Auto Parts,Parts Shops and 4x4 Retailers,Fuquay-Varina,NC,"545, North Main Street, Fuquay-Varina, NC, 27526",+19195521620,https://locations.oreillyauto.com/nc/fuquay-varina/autoparts-2184.html,"https://www.google.com/maps?q=35.591822,-78.794591","parts, retail",,OSM,way/439787068,35.5918224,-78.794591
o-reilly-auto-parts-nc-58,O'Reilly Auto Parts,Parts Shops and 4x4 Retailers,Siler City,NC,"1718, East Eleventh Street, Siler City, NC, 27344",+19196630321,https://locations.oreillyauto.com/nc/silercity/autoparts-1851.html,"https://www.google.com/maps?q=35.733312,-79.436571","parts, retail",,OSM,way/652110009,35.7333121,-79.4365706
o-reilly-auto-parts-nc-60,O'Reilly Auto Parts,Parts Shops and 4x4 Retailers,Four Oaks,NC,"6095, US 301 Highway South, Four Oaks, NC, 27524",+19199632739,https://locations.oreillyauto.com/nc/fouroaks/autoparts-5110.html,"https://www.google.com/maps?q=35.446089,-78.422712","parts, retail",,OSM,way/705216598,35.4460887,-78.4227115
o-reilly-auto-parts-nc-63,O'Reilly Auto Parts,Parts Shops and 4x4 Retailers,Garner,NC,"4707, NC-42 West, Garner, NC, 27529",+1-919-325-7691,https://locations.oreillyauto.com/nc/garner/autoparts-5255.html,"https://www.google.com/maps?q=35.611737,-78.552311","parts, retail",,OSM,way/802686010,35.6117368,-78.5523114
o-reilly-auto-parts-nc-64,O'Reilly Auto Parts,Parts Shops and 4x4 Retailers,Winston Salem,NC,"6041, University Parkway, Winston Salem, NC, 27105",+1-336-377-2036,https://locations.oreillyauto.com/nc/winston-salem/autoparts-2198.html,"https://www.google.com/maps?q=36.191635,-80.277471","parts, retail",,OSM,way/954045997,36.1916346,-80.2774709
o-reilly-auto-parts-nc-39,O'Reilly Auto Parts,Parts Shops and 4x4 Retailers,Mint Hill,NC,"8000, Fairview Road, Mint Hill, NC, 28227",+1-980-282-1461,https://locations.oreillyauto.com/nc/minthill/autoparts-6539.html,"https://www.google.com/maps?q=35.178936,-80.646272","parts, retail",,OSM,way/1080351659,35.1789355,-80.6462718
o-reilly-auto-parts-nc-42,O'Reilly Auto Parts,Parts Shops and 4x4 Retailers,Vanceboro,NC,"280, NC-43, Vanceboro, NC, 28586",+12526620292,https://locations.oreillyauto.com/nc/vanceboro/autoparts-6472.html,"https://www.google.com/maps?q=35.311847,-77.158957","parts, retail",,OSM,way/1220094703,35.3118471,-77.1589574
o-reilly-auto-parts-nc-43,O'Reilly Auto Parts,Parts Shops and 4x4 Retailers,Warsaw,NC,"206, South Pine Street, Warsaw, NC, 28398",+19102262704,https://locations.oreillyauto.com/nc/warsaw/autoparts-5311.html,"https://www.google.com/maps?q=34.997634,-78.091359","parts, retail",,OSM,way/1220652556,34.9976345,-78.0913593
o-reilly-auto-parts-nc-44,O'Reilly Auto Parts,Parts Shops and 4x4 Retailers,Hickory,NC,"2430, Springs Road Northeast, Hickory, NC, 28601",+1-828-328-3669,https://www.oreillyauto.com,"https://www.google.com/maps?q=35.752418,-81.285610","parts, retail",,OSM,way/1286419076,35.7524179,-81.2856097
o-reilly-auto-parts-nc-45,O'Reilly Auto Parts,Parts Shops and 4x4 Retailers,Grantsboro,NC,"11155, NC-55, Grantsboro, NC, 28529",+12526920551,https://locations.oreillyauto.com/nc/grantsboro/autoparts-6417.html,"https://www.google.com/maps?q=35.142556,-76.837000","parts, retail",,OSM,way/1340091420,35.1425563,-76.8370001
o-reilly-auto-parts-nc-47,O'Reilly Auto Parts,Parts Shops and 4x4 Retailers,Marion,NC,"815, North Main Street, Marion, NC, 28752",+1-828-659-6022,https://locations.oreillyauto.com/nc/marion/autoparts-4771.html,"https://www.google.com/maps?q=35.690833,-82.020484","parts, retail",,OSM,way/1482424281,35.6908327,-82.0204845
o-reilly-auto-parts-nc-26,O'Reilly Auto Parts,Parts Shops and 4x4 Retailers,,NC,"1201, East Wendover Avenue, NC",+1-336-274-6054,https://locations.oreillyauto.com/nc/greensboro/autoparts-1348.html,"https://www.google.com/maps?q=36.088231,-79.769625","parts, retail",,OSM,node/7089967681,36.0882314,-79.7696245
o-reilly-auto-parts-nc-17,O'Reilly Auto Parts,Parts Shops and 4x4 Retailers,High Point,NC,"1912, North Main Street, High Point, NC",,https://locations.oreillyauto.com/nc/highpoint/autoparts-1246.html,"https://www.google.com/maps?q=35.980576,-80.021113","parts, retail",,OSM,node/3416902136,35.9805755,-80.0211134
o-reilly-auto-parts-nc-19,O'Reilly Auto Parts,Parts Shops and 4x4 Retailers,Statesville,NC,"528, South Center Street, Statesville, NC, 28677",,https://locations.oreillyauto.com/nc/statesville/autoparts-1101.html,"https://www.google.com/maps?q=35.778753,-80.885861","parts, retail",,OSM,node/4059301243,35.7787528,-80.8858611
o-reilly-auto-parts-nc-20,O'Reilly Auto Parts,Parts Shops and 4x4 Retailers,Pittsboro,NC,"29, Old Rock Spring Cem Road, Pittsboro, NC, 27312",+19192406177,,"https://www.google.com/maps?q=35.742638,-79.169139","parts, retail",,OSM,node/5785413624,35.7426379,-79.1691389
o-reilly-auto-parts-nc-21,O'Reilly Auto Parts,Parts Shops and 4x4 Retailers,Archdale,NC,"10407, North Main Street, Archdale, NC, 27263",,https://locations.oreillyauto.com/nc/archdale/autoparts-2096.html,"https://www.google.com/maps?q=35.907237,-79.962356","parts, retail",,OSM,node/6348542090,35.9072372,-79.9623563
o-reilly-auto-parts-nc-25,O'Reilly Auto Parts,Parts Shops and 4x4 Retailers,Smithfield,NC,"816, North Brightleaf Boulevard, Smithfield, NC, 27577",,https://locations.oreillyauto.com/nc/smithfield/autoparts-2201.html,"https://www.google.com/maps?q=35.514907,-78.326315","parts, retail",,OSM,node/6703086290,35.5149067,-78.3263146
o-reilly-auto-parts-nc-27,O'Reilly Auto Parts,Parts Shops and 4x4 Retailers,Fletcher,NC,"3507, Hendersonville Road, Fletcher, NC, 28732",,https://locations.oreillyauto.com/nc/fletcher/autoparts-5366.html,"https://www.google.com/maps?q=35.433871,-82.502094","parts, retail",,OSM,node/7188946809,35.4338713,-82.5020935
o-reilly-auto-parts-nc-35,O'Reilly Auto Parts,Parts Shops and 4x4 Retailers,Charlotte,NC,"3121, North Sharon Amity Road, Charlotte, NC, 28205",,https://locations.oreillyauto.com/nc/charlotte/autoparts-1803.html,"https://www.google.com/maps?q=35.203203,-80.760750","parts, retail",,OSM,node/8500345548,35.2032027,-80.7607497
o-reilly-auto-parts-nc-15,O'Reilly Auto Parts,Parts Shops and 4x4 Retailers,Ahoskie,NC,"1411, E Memorial Dr, Ahoskie, NC, 27910",+12522090444,,"https://www.google.com/maps?q=36.273731,-76.972192","parts, retail",,OSM,node/12335754603,36.2737311,-76.9721917
o-reilly-auto-parts-nc-50,O'Reilly Auto Parts,Parts Shops and 4x4 Retailers,Thomasville,NC,"701, Randolph Street, Thomasville, NC",,https://locations.oreillyauto.com/nc/thomasville/autoparts-1300.html,"https://www.google.com/maps?q=35.873764,-80.075760","parts, retail",,OSM,way/283423503,35.873764,-80.0757602
o-reilly-auto-parts-nc-57,O'Reilly Auto Parts,Parts Shops and 4x4 Retailers,Durham,NC,"5268, North Roxboro Street, Durham, NC, 27712",,https://locations.oreillyauto.com/nc/durham/autoparts-4376.html,"https://www.google.com/maps?q=36.075345,-78.908900","parts, retail",,OSM,way/580559616,36.0753446,-78.9089
o-reilly-auto-parts-nc-59,O'Reilly Auto Parts,Parts Shops and 4x4 Retailers,Mount Holly,NC,"421, Beatty Drive, Mount Holly, NC, 28120",,https://locations.oreillyauto.com/nc/mountholly/autoparts-1945.html,"https://www.google.com/maps?q=35.274371,-81.026443","parts, retail",,OSM,way/698333907,35.2743708,-81.0264432
o-reilly-auto-parts-nc-61,O'Reilly Auto Parts,Parts Shops and 4x4 Retailers,Mooresville,NC,"345, East Plaza Drive, Mooresville, NC, 28115",,https://locations.oreillyauto.com/nc/mooresville/autoparts-2068.html,"https://www.google.com/maps?q=35.592166,-80.822594","parts, retail",,OSM,way/744529403,35.5921659,-80.8225937
o-reilly-auto-parts-nc-62,O'Reilly Auto Parts,Parts Shops and 4x4 Retailers,Shelby,NC,"750, South Lafayette Street, Shelby, NC, 28150",,https://locations.oreillyauto.com/nc/shelby/autoparts-2298.html,"https://www.google.com/maps?q=35.280822,-81.541848","parts, retail",,OSM,way/773022699,35.2808225,-81.5418475
o-reilly-auto-parts-nc-40,O'Reilly Auto Parts,Parts Shops and 4x4 Retailers,Southern Pines,NC,"1500, US Highway 1, Southern Pines, NC, 28387",,https://locations.oreillyauto.com/nc/southernpines/autoparts-4638.html,"https://www.google.com/maps?q=35.162565,-79.410668","parts, retail",,OSM,way/1087996292,35.1625645,-79.4106685
o-reilly-auto-parts-nc-41,O'Reilly Auto Parts,Parts Shops and 4x4 Retailers,Mars Hill,NC,"159, Carl Eller Road, Mars Hill, NC, 28754",,https://locations.oreillyauto.com/nc/marshill/autoparts-6502.html,"https://www.google.com/maps?q=35.825916,-82.546066","parts, retail",,OSM,way/1180507114,35.8259159,-82.5460657
o-reilly-auto-parts-nc-46,O'Reilly Auto Parts,Parts Shops and 4x4 Retailers,Albemarle,NC,"511, NC 24-27, Albemarle, NC, 28001",,https://locations.oreillyauto.com/nc/albemarle/autoparts-3913.html,"https://www.google.com/maps?q=35.343385,-80.179555","parts, retail",,OSM,way/1474597379,35.3433854,-80.179555
o-riley-auto-parts-nc,O'Riley Auto Parts,Parts Shops and 4x4 Retailers,Morganton,NC,"114, East Fleming Drive, Morganton, NC, 28655",+1 828 433 1014,,"https://www.google.com/maps?q=35.740997,-81.678823","parts, retail",,OSM,relation/11259858,35.740997,-81.6788229
onslow-audio-nc,Onslow Audio,Parts Shops and 4x4 Retailers,,NC,"231, Western Boulevard, NC",,https://www.onslowaudio.com/,"https://www.google.com/maps?q=34.753626,-77.381669","parts, retail",,OSM,node/11511970187,34.7536259,-77.3816692
parts-city-auto-parts-b-j-auto-parts-nc,Parts City Auto Parts - B & J Auto Parts,Parts Shops and 4x4 Retailers,Bakersville,NC,"140, NC 226, Bakersville, NC, 28705",+1-828-688-2137,,"https://www.google.com/maps?q=36.014681,-82.160416","parts, retail",,OSM,way/1434373999,36.0146811,-82.1604162
pine-hill-auto-parts-nc,Pine Hill Auto Parts,Parts Shops and 4x4 Retailers,Burnsville,NC,"37, Newdale Church Road, Burnsville, NC, 28714",+18286755852,,"https://www.google.com/maps?q=35.904977,-82.177870","parts, retail",,OSM,way/757481634,35.9049769,-82.1778698
pittman-s-auto-services-nc,Pittman's Auto Services,Parts Shops and 4x4 Retailers,Clayton,NC,"710, East Main Street, Clayton, NC, 27520",+1-919-553-7050,,"https://www.google.com/maps?q=35.644579,-78.451725","parts, retail",,OSM,way/341222969,35.6445786,-78.4517252
pma-tools-inc-nc,PMA/TOOLS Inc.,Parts Shops and 4x4 Retailers,East Flat Rock,NC,"201, Mills St., East Flat Rock, NC, 28726",+1 828 2334060,https://pmatools.com/,"https://www.google.com/maps?q=35.285927,-82.428869","parts, retail",,OSM,way/1093067782,35.2859271,-82.4288686
race-parts-xpress-nc,Race Parts Xpress,Parts Shops and 4x4 Retailers,Maiden,NC,"4486, Providence Mill Road, Maiden, NC, 28650",+1-828-428-8653,,"https://www.google.com/maps?q=35.574431,-81.194464","parts, retail",,OSM,node/7208969183,35.5744307,-81.1944644
racing-electronics-nc,Racing Electronics,Parts Shops and 4x4 Retailers,Concord,NC,"840, Derita Road, Concord, NC, 28027",,https://racingelectronics.com/,"https://www.google.com/maps?q=35.402008,-80.715924","parts, retail",,OSM,way/220349161,35.4020075,-80.7159245
ritchie-auto-parts-nc,Ritchie Auto Parts,Parts Shops and 4x4 Retailers,Vale,NC,"9468, NC-10, Vale, NC, 28168",+17044622694,,"https://www.google.com/maps?q=35.570737,-81.477119","parts, retail",,OSM,way/1056489476,35.570737,-81.4771191
rpm-motorsports-nc,RPM Motorsports,Parts Shops and 4x4 Retailers,Garner,NC,"310, Shipwash Drive, Garner, NC, 27529",+19196617947,,"https://www.google.com/maps?q=35.592055,-78.572488","parts, retail",,OSM,way/462395855,35.5920548,-78.5724879
rubitrux-nc,RubiTrux,Parts Shops and 4x4 Retailers,Boone,NC,"465, East King Street, Boone, NC, 28607",+18286758789,,"https://www.google.com/maps?q=36.216930,-81.668339","parts, retail",,OSM,node/7636321812,36.2169301,-81.6683393
rudy-s-performance-parts-nc,Rudy's Performance Parts,Parts Shops and 4x4 Retailers,Burlington,NC,"7422, Whitsett Park Road, Burlington, NC, 27215",+1-919-383-9300;+1-866-757-6537,https://rudysdiesel.com,"https://www.google.com/maps?q=36.063304,-79.542055","parts, retail",,OSM,node/6906481809,36.0633042,-79.5420546
sanders-auto-parts-nc,Sanders Auto Parts,Parts Shops and 4x4 Retailers,Richlands,NC,"8702, Richlands Highway, Richlands, NC, 28574",+1 910-324-2731,,"https://www.google.com/maps?q=34.901844,-77.553663","parts, retail",,OSM,way/688627784,34.9018439,-77.5536626
sloan-engines-nc,Sloan Engines,Parts Shops and 4x4 Retailers,Sanford,NC,"1801, Broadway Road, Sanford, NC, 27332",+19192585616,,"https://www.google.com/maps?q=35.462612,-79.100376","parts, retail",,OSM,node/10314801002,35.4626121,-79.1003758
stokes-auto-parts-nc,Stokes Auto Parts,Parts Shops and 4x4 Retailers,Danbury,NC,"4461, NC-8, Danbury, NC, 27016",+13365932224,,"https://www.google.com/maps?q=36.483953,-80.227547","parts, retail",,OSM,node/9839927398,36.4839526,-80.2275466
stone-truck-parts-nc,Stone Truck Parts,Parts Shops and 4x4 Retailers,Garner,NC,"1120, US-70, Garner, NC, 27529",+19197724546,,"https://www.google.com/maps?q=35.719401,-78.635862","parts, retail",,OSM,way/765466370,35.7194015,-78.6358615
styles-auto-parts-nc,Styles Auto Parts,Parts Shops and 4x4 Retailers,Burnsville,NC,"305, US-19 East, Burnsville, NC, 28714",+18286822740,,"https://www.google.com/maps?q=35.914925,-82.302635","parts, retail",,OSM,way/1100717742,35.9149247,-82.3026353
swedish-performance-and-parts-nc,Swedish Performance and Parts,Parts Shops and 4x4 Retailers,Wendell,NC,"429, Industrial Drive, Wendell, NC, 27591",+1-919-365-9100,,"https://www.google.com/maps?q=35.787453,-78.377393","parts, retail",,OSM,node/7389707779,35.7874528,-78.3773931
tnt-auto-truck-accessories-nc,TNT Auto & Truck Accessories,Parts Shops and 4x4 Retailers,Reidsville,NC,"673, South Scales Street, Reidsville, NC, 27320",+13363489980,,"https://www.google.com/maps?q=36.352501,-79.664532","parts, retail",,OSM,way/1107828405,36.3525008,-79.6645324
walker-auto-parts-nc,Walker Auto Parts,Parts Shops and 4x4 Retailers,Sanford,NC,"500, Wicker Street, Sanford, NC, 27330",+1-919-851-8483,,"https://www.google.com/maps?q=35.477659,-79.182666","parts, retail",,OSM,way/601552314,35.4776592,-79.1826665
western-auto-nc,Western Auto,Parts Shops and 4x4 Retailers,Wendell,NC,"4100, Wendell Boulevard, Wendell, NC, 27591",+1-919-365-7145,,"https://www.google.com/maps?q=35.783901,-78.359952","parts, retail",,OSM,way/815096060,35.7839005,-78.359952
wills-auto-electric-nc,Wills Auto Electric,Parts Shops and 4x4 Retailers,Shelby,NC,"1012, South Morgan Street, Shelby, NC, 28152",+1-704-482-3651,,"https://www.google.com/maps?q=35.276900,-81.543751","parts, retail",,OSM,way/773022683,35.2769,-81.543751
big-mike-s-radiator-and-ac-service-nc,Big Mike's Radiator and AC Service,Radiator and Cooling Specialists,,NC,NC,+12528339856,,"https://www.google.com/maps?q=35.466065,-76.800886","radiator, cooling",,OSM,way/1412135258,35.4660646,-76.8008856
rapid-muffler-brake-radiator-nc,Rapid Muffler Brake & Radiator,Radiator and Cooling Specialists,Roanoke Rapids,NC,"1461, Stancell Street, Roanoke Rapids, NC, 27870",+12525374454,,"https://www.google.com/maps?q=36.439811,-77.648283","radiator, cooling",,OSM,node/13592162703,36.4398105,-77.6482828
301-service-center-sales-llc-nc,"301 Service Center & Sales, LLC.",Repair Shops (XJ/Jeep-Friendly),Dunn,NC,"1109, South Clinton Avenue, Dunn, NC, 28334",+19108923011,,"https://www.google.com/maps?q=35.298537,-78.614939","repair, mechanic",,OSM,way/1147028883,35.2985366,-78.6149386
3c-automotive-llc-nc,"3C Automotive,LLC",Repair Shops (XJ/Jeep-Friendly),Wilkesboro,NC,"2394, Congo Road, Wilkesboro, NC, 28697",+13369731000,,"https://www.google.com/maps?q=36.150388,-81.221141","repair, mechanic",,OSM,node/10289746383,36.1503881,-81.2211407
42-collision-center-nc,42 Collision Center,Repair Shops (XJ/Jeep-Friendly),Clayton,NC,"148, State Avenue, Clayton, NC, 27520",+1-919-550-2142,,"https://www.google.com/maps?q=35.639714,-78.481190","repair, mechanic",,OSM,way/221395669,35.6397136,-78.4811898
421-auto-service-nc,421 Auto Service,Repair Shops (XJ/Jeep-Friendly),Boone,NC,"2250, Old US-421 South, Boone, NC, 28607",+18282646660,,"https://www.google.com/maps?q=36.225040,-81.603675","repair, mechanic",,OSM,node/10567914082,36.22504,-81.603675
a-l-body-shop-inc-nc,A & L Body Shop Inc,Repair Shops (XJ/Jeep-Friendly),Kinston,NC,"2178, US-258, Kinston, NC, 28504",+1-252-523-6620,,"https://www.google.com/maps?q=35.295408,-77.646705","repair, mechanic",,OSM,node/10270820149,35.2954077,-77.6467054
a-and-b-auto-body-repair-nc,A And B Auto Body Repair,Repair Shops (XJ/Jeep-Friendly),Mooresville,NC,"593, Oakridge Farm Highway, Mooresville, NC, 28115",+1 704 662 9000,,"https://www.google.com/maps?q=35.601935,-80.810967","repair, mechanic",,OSM,node/4059306608,35.6019352,-80.8109668
a-plus-auto-repair-llc-nc,A Plus Auto Repair LLC,Repair Shops (XJ/Jeep-Friendly),,NC,NC,+1-919-351-0353,,"https://www.google.com/maps?q=35.605153,-78.295986","repair, mechanic",,OSM,node/7861691936,35.6051527,-78.2959864
a-w-motors-nc,A&W Motors,Repair Shops (XJ/Jeep-Friendly),Morganton,NC,"1007, Old N C 18, Morganton, NC, 28655",+1 828 437-7467,,"https://www.google.com/maps?q=35.706988,-81.659983","repair, mechanic",,OSM,way/442123132,35.706988,-81.6599828
a-1-imports-nc,A-1 Imports,Repair Shops (XJ/Jeep-Friendly),Greenville,NC,"4139, NC-33, Greenville, NC, 27834",+1-252-702-2554,,"https://www.google.com/maps?q=35.707785,-77.464873","repair, mechanic",,OSM,node/7334911779,35.7077847,-77.4648734
a-1-muffler-service-center-nc,A-1 Muffler & Service Center,Repair Shops (XJ/Jeep-Friendly),Hickory,NC,"3350, Highland Avenue Northeast, Hickory, NC, 28601",+1-828-324-2874,,"https://www.google.com/maps?q=35.724024,-81.266702","repair, mechanic",,OSM,way/553645162,35.7240238,-81.2667019
aaa-carolinas-nc,AAA Carolinas,Repair Shops (XJ/Jeep-Friendly),Cary,NC,"401, Colonades Way, Cary, NC, 27518",+1-919-678-7140,https://locator.carolinas.aaa.com/nc/cary/1027,"https://www.google.com/maps?q=35.740372,-78.777456","repair, mechanic",,OSM,node/3482499499,35.7403716,-78.7774556
aaa-carolinas-nc-2,AAA Carolinas,Repair Shops (XJ/Jeep-Friendly),Huntersville,NC,"9331, Knockando Ln, Huntersville, NC, 28078",+1-704-897-0580,https://locator.carolinas.aaa.com/nc/huntersville/aaa-huntersville,"https://www.google.com/maps?q=35.442679,-80.856968","repair, mechanic",,OSM,node/3603029906,35.442679,-80.8569679
aaa-carolinas-nc-3,AAA Carolinas,Repair Shops (XJ/Jeep-Friendly),Durham,NC,"3505, Westgate Drive, Durham, NC, 27707",+1-919-489-3306,https://locator.carolinas.aaa.com/nc/durham/1059,"https://www.google.com/maps?q=35.965727,-78.960235","repair, mechanic",,OSM,node/3605421055,35.9657272,-78.9602352
aaa-carolinas-nc-4,AAA Carolinas,Repair Shops (XJ/Jeep-Friendly),Fayetteville,NC,"5321, Red Tip Rd, Fayetteville, NC, 28314",+1-910-864-3115,https://locator.carolinas.aaa.com/nc/fayetteville/1063,"https://www.google.com/maps?q=35.061831,-78.969645","repair, mechanic",,OSM,node/3605422618,35.0618311,-78.9696446
aaa-carolinas-nc-5,AAA Carolinas,Repair Shops (XJ/Jeep-Friendly),Greensboro,NC,"306, Pisgah Church Road, Greensboro, NC, 27455",+1-336-544-0841,https://locator.carolinas.aaa.com/nc/greensboro/1071,"https://www.google.com/maps?q=36.132549,-79.794596","repair, mechanic",,OSM,node/3605431650,36.1325491,-79.7945956
aaa-carolinas-nc-6,AAA Carolinas,Repair Shops (XJ/Jeep-Friendly),Raleigh,NC,"6014, Glenwood Ave, Raleigh, NC, 27612",+1-919-832-5909,https://locator.carolinas.aaa.com/nc/raleigh/1123,"https://www.google.com/maps?q=35.855649,-78.701120","repair, mechanic",,OSM,node/3605474444,35.8556491,-78.7011199
aaa-carolinas-nc-7,AAA Carolinas,Repair Shops (XJ/Jeep-Friendly),Wake Forest,NC,"11126, Capital Boulevard, Wake Forest, NC, 27587",+1-919-453-5270,https://locator.carolinas.aaa.com/nc/wake+forest/1150,"https://www.google.com/maps?q=35.950433,-78.538198","repair, mechanic",,OSM,node/3605497619,35.9504329,-78.5381981
aaa-carolinas-nc-8,AAA Carolinas,Repair Shops (XJ/Jeep-Friendly),Wilmington,NC,"1520, Military Cutoff Rd, Wilmington, NC, 28403",+1-910-679-1440,https://locator.carolinas.aaa.com/nc/wilmington/1154,"https://www.google.com/maps?q=34.223098,-77.831148","repair, mechanic",,OSM,node/3605508498,34.2230977,-77.8311484
